City_ID,City,Lat,Lng,Max Temp,Humidity,Cloudiness,Wind Speed,Country,Date
0,bilibino,68.0546,166.4372,1.75,82,100,7.9,RU,1723494025
1,ushuaia,-54.8,-68.3,5.81,61,20,3.09,AR,1723493765
2,yellowknife,62.456,-114.3525,26.29,38,100,3.09,CA,1723494025
3,nicoya,10.1483,-85.452,28.4,76,100,1.48,CR,1723493447
4,port mathurin,-19.6833,63.4167,22.03,69,99,10.29,MU,1723494025
5,utrik,11.2278,169.8474,28.14,78,100,7.51,MH,1723493444
6,mabaruma,8.2,-59.7833,27.79,93,34,0.92,GY,1723494026
7,albany,42.6001,-73.9662,20.88,62,100,1.34,US,1723494015
8,adamstown,-25.066,-130.1015,19.58,69,100,8.78,PN,1723494026
9,margaret river,-33.95,115.0667,14.19,73,86,5.98,AU,1723494026
10,tawau,4.2498,117.8871,26.4,83,100,1.88,MY,1723494026
11,rio pardo de minas,-15.6097,-42.5397,28.86,29,5,2.86,BR,1723494026
12,udachny,66.4167,112.4,5.84,90,100,7.6,RU,1723494026
13,arraial do cabo,-22.9661,-42.0278,19.98,60,0,9.77,BR,1723493732
14,kharp,66.8014,65.8081,13.72,70,100,3.06,RU,1723494027
15,malakal,9.5334,31.6605,23.77,90,100,1.01,SS,1723494027
16,west island,-12.1568,96.8225,25.99,78,20,5.14,CC,1723494027
17,blackmans bay,-43.0167,147.3167,10.29,72,100,3.67,AU,1723494027
18,el bauga,18.262,33.9081,32.96,52,80,9.43,SD,1723494027
19,taitung city,22.7583,121.1444,26.96,80,64,1.71,TW,1723494027
20,flin flon,54.7682,-101.865,26.91,39,40,3.6,CA,1723494027
21,papao,-17.75,-149.55,25.61,79,56,0.71,PF,1723493434
22,thouars,46.976,-0.2151,22.65,70,100,5.0,FR,1723494027
23,papatowai,-46.5619,169.4708,4.01,91,26,3.53,NZ,1723494028
24,bethel,41.3712,-73.414,23.91,68,75,6.17,US,1723493805
25,punta arenas,-53.15,-70.9167,5.06,93,75,2.57,CL,1723493789
26,altay,47.8667,88.1167,15.28,43,1,2.92,CN,1723494028
27,puerto natales,-51.7236,-72.4875,10.25,57,20,8.23,CL,1723494028
28,grytviken,-54.2811,-36.5092,-9.13,66,100,4.41,GS,1723494028
29,khovd,48.0056,91.6419,17.39,59,23,2.32,MN,1723494028
30,iqaluit,63.7506,-68.5145,6.85,70,20,3.09,CA,1723494028
31,olonkinbyen,70.9221,-8.7187,5.04,91,100,5.43,SJ,1723494028
32,sao joao da barra,-21.6403,-41.0511,20.72,62,100,13.31,BR,1723493466
33,port-aux-francais,-49.35,70.2167,3.1,83,56,13.36,TF,1723494029
34,tsiombe,-25.3,45.4833,18.76,83,0,0.82,MG,1723494029
35,isafjordur,66.0755,-23.124,6.73,95,100,6.24,IS,1723494029
36,lorengau,-2.0226,147.2712,26.93,82,89,3.75,PG,1723493465
37,ust-nera,64.5667,143.2,11.44,95,71,1.82,RU,1723494029
38,edinburgh of the seven seas,-37.0676,-12.3116,11.66,67,54,5.62,SH,1723494029
39,daru,-9.0763,143.2092,24.63,92,32,6.22,PG,1723494029
40,port douglas,-16.4833,145.4667,19.49,83,0,1.41,AU,1723493468
41,strezhevoy,60.7333,77.5889,11.57,73,97,2.71,RU,1723493961
42,yanbu,24.0891,38.0637,36.02,21,0,5.14,SA,1723494030
43,lensk,60.7253,114.9278,17.51,93,90,2.23,RU,1723494030
44,port alfred,-33.5906,26.891,14.27,70,100,3.87,ZA,1723494030
45,carnarvon,-24.8667,113.6333,17.48,76,0,4.42,AU,1723494030
46,geraldton,-28.7667,114.6,10.23,93,0,4.63,AU,1723494030
47,afaahiti,-17.75,-149.2833,24.2,83,73,0.25,PF,1723494030
48,invercargill,-46.4,168.35,4.45,83,77,3.13,NZ,1723494031
49,thompson,55.7435,-97.8558,30.09,32,40,4.63,CA,1723494031
50,timbiqui,2.7717,-77.6654,27.06,83,71,3.37,CO,1723494031
51,chibougamau,49.9168,-74.3659,20.9,55,76,2.69,CA,1723493435
52,haapsalu,58.9431,23.5414,14.99,88,92,4.4,EE,1723494031
53,kuta,-8.7233,115.1723,24.97,94,20,4.63,ID,1723493449
54,keflavik,64.0049,-22.5624,11.24,82,0,7.72,IS,1723494031
55,wenling,28.3669,121.36,27.09,92,100,3.24,CN,1723494031
56,sao gabriel da cachoeira,-0.1303,-67.0892,25.53,95,90,1.35,BR,1723494031
57,khvoynaya,58.9,34.5333,11.1,96,100,2.13,RU,1723494031
58,lihue,21.9789,-159.3672,27.42,79,20,6.69,US,1723494032
59,pokaran,26.9167,71.9167,31.36,65,100,4.36,IN,1723494032
60,hermanus,-34.4187,19.2345,12.43,84,100,2.85,ZA,1723494032
61,tolanaro,-25.0319,46.9987,19.45,72,0,2.26,MG,1723493453
62,jacmel,18.2342,-72.5347,30.24,72,25,4.3,HT,1723494032
63,badger,64.8,-147.5333,13.88,73,75,5.14,US,1723494032
64,taoudenni,22.6783,-3.9836,40.73,8,0,4.38,ML,1723494032
65,mtambile,-5.3833,39.7,24.13,80,2,5.54,TZ,1723494032
66,waitangi,-43.9535,-176.5597,5.46,92,99,3.58,NZ,1723494032
67,camana,-16.6228,-72.7111,16.96,74,43,2.83,PE,1723494032
68,manistee,44.2445,-86.3242,24.97,44,0,3.6,US,1723494033
69,kralendijk,12.15,-68.2667,32.99,55,20,8.23,BQ,1723494033
70,ellensburg,46.9965,-120.5479,27.36,36,23,2.24,US,1723494033
71,andovoranto,-18.95,49.1,20.0,90,4,2.32,MG,1723494033
72,badlapur,19.15,73.2667,25.64,88,82,1.58,IN,1723494033
73,bodaybo,57.8506,114.1933,19.21,90,87,0.64,RU,1723494033
74,bredasdorp,-34.5322,20.0403,10.08,86,100,1.59,ZA,1723494033
75,luderitz,-26.6481,15.1594,15.56,64,3,4.36,NA,1723494033
76,weno,7.4515,151.8468,28.55,72,100,2.65,FM,1723493454
77,manturovo,58.3353,44.7619,12.67,88,100,2.86,RU,1723494034
78,fale old settlement,-9.3852,-171.2468,27.48,79,57,7.15,TK,1723494034
79,shenjiamen,29.9576,122.298,27.18,95,97,3.2,CN,1723494034
80,college,64.8569,-147.8028,13.04,68,75,5.14,US,1723494034
81,faridpur,23.6,89.8333,27.4,88,100,2.81,BD,1723494034
82,arno,60.1167,18.6333,17.24,69,60,5.06,SE,1723493437
83,changping,40.2186,116.2197,23.1,78,99,2.33,CN,1723494034
84,tiksi,71.6872,128.8694,1.94,99,100,4.61,RU,1723494034
85,iskateley,67.6803,53.1512,7.07,89,99,5.07,RU,1723494034
86,vilyuchinsk,52.9306,158.4028,13.52,94,100,0.53,RU,1723494034
87,anloga,5.7947,0.8973,24.93,88,72,6.6,GH,1723494035
88,nha trang,12.25,109.1833,25.31,83,59,2.3,VN,1723494035
89,ribeira grande,38.5167,-28.7,25.22,73,40,6.17,PT,1723494035
90,fisterra,42.9049,-9.2629,18.62,86,8,3.31,ES,1723494035
91,remire-montjoly,4.9167,-52.2667,31.02,70,0,6.17,GF,1723493447
92,codrington,-38.2667,141.9667,12.66,64,45,7.54,AU,1723494035
93,new norfolk,-42.7826,147.0587,8.6,80,100,1.58,AU,1723493452
94,talnakh,69.4865,88.3972,14.89,61,100,1.72,RU,1723494035
95,miercurea-ciuc,46.35,25.8,18.03,70,3,1.31,RO,1723494035
96,ancud,-41.8697,-73.8203,9.83,81,100,4.72,CL,1723493437
97,san luis de la loma,17.2706,-100.8939,30.96,66,78,3.29,MX,1723494036
98,ifakara,-8.1333,36.6833,22.88,54,0,1.95,TZ,1723494036
99,hirara,24.8,125.2833,26.92,94,6,1.03,JP,1723494036
100,port elizabeth,-33.918,25.5701,11.16,86,0,0.51,ZA,1723493772
101,atafu village,-8.5421,-172.5159,27.79,77,17,6.06,TK,1723494036
102,dryden,49.7833,-92.7503,25.16,50,40,2.57,CA,1723494036
103,saipan,15.1355,145.701,28.39,83,0,2.06,MP,1723494036
104,mount gambier,-37.8333,140.7667,13.27,55,99,5.18,AU,1723493448
105,la sarre,48.8002,-79.1996,24.36,38,100,4.31,CA,1723494036
106,najran,17.4924,44.1277,28.99,35,100,1.62,SA,1723494037
107,sao vicente,-23.9631,-46.3919,17.98,26,0,1.54,BR,1723494037
108,la ronge,55.1001,-105.2842,28.14,26,0,4.12,CA,1723494037
109,lebu,-37.6167,-73.65,11.11,74,100,4.97,CL,1723494037
110,menaka,15.9182,2.4022,33.36,43,41,5.4,ML,1723494037
111,stanley,54.868,-1.6985,16.4,78,20,3.6,GB,1723494037
112,georgetown,5.4112,100.3354,27.96,74,20,1.03,MY,1723493985
113,huarmey,-10.0681,-78.1522,19.56,68,11,4.65,PE,1723493452
114,westport,41.1415,-73.3579,23.87,72,100,3.58,US,1723493187
115,kavaratti,10.5669,72.642,27.89,83,82,8.32,IN,1723494038
116,fraserburgh,57.6874,-2.0184,15.22,92,100,1.83,GB,1723494038
117,ouadda,8.0777,22.4007,20.54,95,100,0.72,CF,1723494038
118,hasaki,35.7333,140.8333,26.97,90,5,3.77,JP,1723494038
119,cannonvale,-20.2833,148.7,16.51,87,9,2.14,AU,1723494038
120,taksimo,56.3444,114.8794,18.91,84,86,1.16,RU,1723494038
121,popondetta,-8.7537,148.2534,22.6,86,54,1.23,PG,1723494038
122,avarua,-21.2078,-159.775,22.03,60,100,3.6,CK,1723494038
123,kodiak,57.79,-152.4072,15.73,55,0,8.23,US,1723493821
124,ghat,24.9647,10.1728,34.31,17,0,3.98,LY,1723494039
125,al bardiyah,31.7561,25.0865,26.26,72,0,5.82,LY,1723494039
126,mendi,-6.1761,143.6513,13.66,99,87,0.28,PG,1723493465
127,nerja,36.7585,-3.8873,26.08,87,2,0.45,ES,1723494039
128,hithadhoo,-0.6,73.0833,27.82,78,100,7.31,MV,1723493458
129,miyako,39.6367,141.9525,23.87,99,60,3.17,JP,1723494039
130,griffith,41.5284,-87.4237,26.92,48,0,0.89,US,1723494041
131,hamilton,39.1834,-84.5333,28.84,43,0,2.57,US,1723494041
132,constantia,44.1833,28.65,24.52,70,1,4.86,RO,1723494041
133,princeville,45.7668,-61.2985,27.57,53,75,1.54,CA,1723494041
134,antsiranana,-12.2787,49.2917,22.94,79,4,7.04,MG,1723493461
135,uturoa,-16.7333,-151.4333,25.28,82,100,3.31,PF,1723494041
136,tomatlan,19.9333,-105.25,32.58,59,84,3.33,MX,1723494041
137,gariaband,20.635,82.0614,24.54,92,100,1.65,IN,1723494041
138,mejit,10.2753,170.8646,28.46,75,100,6.2,MH,1723494042
139,chonchi,-42.6128,-73.8092,9.69,89,100,2.69,CL,1723494042
140,qaqortoq,60.7167,-46.0333,8.58,78,100,2.89,GL,1723494042
141,fortuna,40.5982,-124.1573,21.07,61,40,7.72,US,1723493210
142,puerto ayora,-0.7393,-90.3518,20.31,95,67,0.45,EC,1723494042
143,borogontsy,62.6683,131.1683,16.18,49,100,1.63,RU,1723494042
144,quellon,-43.1167,-73.6167,9.89,89,100,6.03,CL,1723494042
145,vila velha,-20.3297,-40.2925,26.97,75,0,3.6,BR,1723494012
146,dunedin,-45.8742,170.5036,7.11,66,7,2.68,NZ,1723494042
147,anadyr,64.75,177.4833,11.28,81,75,5.0,RU,1723494042
148,kanevskaya,46.0849,38.9596,20.44,45,0,2.62,RU,1723494042
149,zhaogezhuang,39.7667,118.4,19.57,90,0,2.83,CN,1723494043
150,gadzhiyevo,69.2551,33.3362,15.68,75,100,2.38,RU,1723494043
151,igarka,67.4667,86.5833,11.49,94,100,3.94,RU,1723494043
152,nov,40.1522,69.3708,27.08,25,40,2.27,TJ,1723494043
153,hwange,-18.3693,26.5019,21.02,13,0,1.36,ZW,1723494043
154,cidade velha,14.9167,-23.6167,28.26,69,75,3.6,CV,1723494043
155,kotlas,61.2611,46.6556,12.34,83,29,2.06,RU,1723494043
156,amalapuram,16.5833,82.0167,26.16,90,100,1.15,IN,1723494043
157,jamestown,42.097,-79.2353,21.8,56,20,3.6,US,1723493805
158,arteche,12.2645,125.4048,25.25,93,100,1.37,PH,1723494044
159,kendal,54.3268,-2.7476,15.49,83,56,2.42,GB,1723494044
160,goure,13.9835,10.2704,26.54,72,43,3.81,NE,1723494044
161,paranhos,-23.8928,-55.4311,18.38,24,100,3.16,BR,1723494044
162,palikir - national government center,6.9248,158.1611,24.41,100,40,0.0,FM,1723493462
163,norderney,53.7,7.15,22.2,66,0,2.24,DE,1723494044
164,marang,5.2056,103.2059,25.64,91,79,2.63,MY,1723494044
165,cabo san lucas,22.8909,-109.9124,33.17,58,20,4.63,MX,1723494044
166,kailua-kona,19.6406,-155.9956,27.38,84,23,1.34,US,1723494044
167,alice springs,-23.7,133.8833,5.75,81,0,0.0,AU,1723494045
168,touros,-5.1989,-35.4608,25.69,77,12,5.15,BR,1723493255
169,mount pleasant,32.7941,-79.8626,33.0,75,20,4.63,US,1723493918
170,sona,45.4388,10.8255,28.51,65,0,2.06,IT,1723494045
171,chernyshevsk,52.5243,117.0174,18.42,53,24,0.61,RU,1723494045
172,whitehorse,60.7161,-135.0538,16.43,51,75,1.79,CA,1723493866
173,sidrolandia,-20.9319,-54.9614,20.93,29,100,2.43,BR,1723494045
174,port hedland,-20.3167,118.5667,17.03,100,68,1.54,AU,1723494045
175,adrar,20.5022,-10.0711,38.99,15,1,3.95,MR,1723494045
176,pokrovsk,48.282,37.1758,16.77,37,0,3.33,UA,1723494045
177,syas'stroy,60.1367,32.5691,13.58,78,97,2.46,RU,1723494046
178,paraty,-23.2178,-44.7131,17.49,69,13,2.34,BR,1723494046
179,velingrad,42.0272,23.9957,21.69,51,0,2.4,BG,1723494046
180,musoma,-1.5,33.8,22.65,72,17,3.26,TZ,1723494046
181,akrehamn,59.2667,5.1833,16.14,67,0,6.17,NO,1723494046
182,gaiman,-43.2897,-65.4929,17.19,36,100,2.89,AR,1723494046
183,almenara,-16.1836,-40.6944,29.01,51,86,2.2,BR,1723494046
184,sovetskaya gavan',48.9723,140.2878,14.76,92,66,0.43,RU,1723494046
185,wailua homesteads,22.0669,-159.378,27.08,77,20,6.69,US,1723494047
186,taiyuan,37.8694,112.5603,20.92,68,0,1.0,CN,1723494047
187,wakkanai,45.4094,141.6739,18.7,97,98,5.73,JP,1723494047
188,rio grande,-32.035,-52.0986,10.59,58,16,6.83,BR,1723493184
189,la passe,45.5549,-0.8967,20.1,92,4,3.05,FR,1723494047
190,sinabang,2.4803,96.3801,25.49,85,44,1.09,ID,1723494047
191,puerto armuelles,8.2833,-82.8667,28.94,74,100,3.58,PA,1723494047
192,ashburton,-37.8626,145.0794,11.46,83,2,1.34,AU,1723494047
193,taltal,-25.4,-70.4833,15.65,70,25,1.36,CL,1723493771
194,lake city,30.1897,-82.6393,33.16,58,40,6.17,US,1723494048
195,tazacorte,28.629,-17.9293,22.54,78,20,6.69,ES,1723494048
196,beau vallon,-20.4189,57.6953,21.13,68,20,3.6,MU,1723494048
197,xining,36.6167,101.7667,14.08,63,47,1.49,CN,1723494048
198,whitecourt,54.1502,-115.6855,24.58,57,75,2.06,CA,1723494048
199,saint-francois,46.4154,3.9054,24.82,75,0,0.0,FR,1723494048
200,thurso,58.5927,-3.5259,14.75,79,100,1.55,GB,1723494048
201,burang,30.25,81.1667,11.02,74,100,1.71,CN,1723494048
202,longyearbyen,78.2186,15.6401,10.91,82,75,2.57,SJ,1723494049
203,ugoofaaru,5.6667,73.0,26.79,83,99,10.21,MV,1723493461
204,mount pearl,47.5166,-52.7813,24.69,68,75,7.72,CA,1723494049
205,san antonio de pale,-1.4014,5.6325,23.44,87,52,6.73,GQ,1723493454
206,taylor,32.3001,-99.8337,38.51,33,0,5.66,US,1723493765
207,agat village,13.3886,144.6585,28.31,95,86,3.3,GU,1723493455
208,saint-philippe,-21.3585,55.7679,22.05,72,46,5.8,RE,1723494049
209,nova sintra,14.8667,-24.7167,27.08,80,23,3.41,CV,1723494049
210,selfoss,63.9331,-20.9971,9.98,91,100,3.17,IS,1723494049
211,barcelos,41.5388,-8.6151,17.89,96,8,2.88,PT,1723494049
212,alesund,62.4723,6.1549,16.29,82,0,4.63,NO,1723494050
213,okhotsk,59.3833,143.3,11.76,83,2,1.35,RU,1723494050
214,hawaiian paradise park,19.5933,-154.9731,25.41,91,100,3.09,US,1723494050
215,lazaro cardenas,17.9583,-102.2,27.68,82,100,1.89,MX,1723494050
216,chipinge,-20.1883,32.6236,16.2,29,0,2.06,ZW,1723493460
217,miandrivazo,-19.5167,45.4667,23.31,54,0,0.36,MG,1723494050
218,dakhla,23.6848,-15.958,22.01,88,75,8.75,EH,1723494050
219,bikenibeu village,1.3673,173.1241,28.98,84,20,1.54,KI,1723494050
220,jieshi,22.8134,115.8257,28.15,84,98,3.48,CN,1723494051
221,lubango,-14.9172,13.4925,15.92,36,0,1.54,AO,1723494051
222,vorgashor,67.5833,63.95,10.24,77,99,4.98,RU,1723494051
223,vadso,70.0744,29.7487,11.09,93,0,3.6,NO,1723494051
224,usogorsk,63.4106,48.6872,16.76,56,98,3.25,RU,1723494051
225,klyuchi,52.2667,79.1667,17.57,87,100,2.09,RU,1723494051
226,chui,-33.6971,-53.4616,9.63,56,2,5.17,UY,1723494051
227,umba,66.6871,34.3429,16.04,69,100,2.44,RU,1723494051
228,neijiang,29.5835,105.0622,25.98,73,0,0.46,CN,1723494052
229,fort mcmurray,56.7268,-111.381,31.77,22,40,4.63,CA,1723494051
230,aykhal,66.0,111.5,5.75,97,100,8.75,RU,1723494052
231,puerto baquerizo moreno,-0.9,-89.6,23.55,73,40,6.17,EC,1723494011
232,morshansk,53.4435,41.8107,14.84,71,100,6.43,RU,1723494052
233,carolina beach,34.0352,-77.8936,31.7,76,58,2.76,US,1723494052
234,bucerias,20.75,-105.3333,33.32,58,40,3.6,MX,1723494052
235,happy valley-goose bay,53.3168,-60.3315,16.87,45,79,4.92,CA,1723493456
236,ilulissat,69.2167,-51.1,17.01,31,20,5.66,GL,1723494052
237,safford,32.834,-109.7076,36.51,35,0,9.77,US,1723494053
238,mindif,10.3976,14.4363,23.14,89,100,3.03,CM,1723494053
239,egilsstadir,65.2653,-14.3948,9.95,87,75,4.63,IS,1723494053
240,pospelikha,51.95,81.7667,16.31,60,100,2.92,RU,1723494053
241,kenai,60.5544,-151.2583,13.05,82,100,10.8,US,1723494053
242,necochea,-38.5473,-58.7368,10.63,58,17,2.05,AR,1723494024
243,eirunepe,-6.6603,-69.8736,35.33,27,19,2.35,BR,1723494053
244,barreirinhas,-2.7469,-42.8264,28.41,64,2,5.1,BR,1723494053
245,kapoeta,4.7717,33.5903,25.95,65,97,2.65,SS,1723494054
246,djambala,-2.5447,14.7533,24.72,54,76,2.42,CG,1723494054
247,penaranda de bracamonte,40.9011,-5.2003,23.31,42,46,2.52,ES,1723494054
248,upper grand lagoon,30.1633,-85.7408,35.03,50,20,5.14,US,1723494054
249,fonte boa,-2.4959,-66.2662,31.31,51,98,1.12,BR,1723494054
250,manokwari,-0.8667,134.0833,25.5,80,56,2.31,ID,1723494054
251,santana,-0.0583,-51.1817,32.1,62,40,5.14,BR,1723493209
252,muynoq,43.7683,59.0214,27.94,38,100,0.5,UZ,1723494054
253,mahajanga,-15.7167,46.3167,22.01,94,20,0.0,MG,1723494054
254,khandyga,62.6667,135.6,13.8,85,88,1.18,RU,1723494054
255,acarau,-2.8856,-40.12,26.86,69,28,9.28,BR,1723494055
256,akjoujt,19.6969,-14.4164,32.65,28,84,8.23,MR,1723494055
257,saldanha,-33.0117,17.9442,11.79,82,100,0.98,ZA,1723494055
258,abatskoye,56.2875,70.4555,12.69,76,100,4.29,RU,1723494055
259,yilan,24.757,121.753,26.3,85,33,1.29,TW,1723494055
260,malango,-2.9627,119.9001,19.08,96,100,0.64,ID,1723493456
261,kruisfontein,-34.0033,24.7314,9.92,75,100,1.74,ZA,1723494055
262,berdigestyakh,62.0989,126.6992,13.79,85,15,1.86,RU,1723494055
263,east london,-33.0153,27.9116,15.07,65,87,3.59,ZA,1723494055
264,hadibu,12.65,54.0333,26.49,76,66,6.77,YE,1723494056
265,busayra,30.7376,35.6078,22.92,74,0,2.0,JO,1723494056
266,peace river,56.2501,-117.286,27.17,47,0,4.12,CA,1723494056
267,quelimane,-17.8786,36.8883,24.97,88,40,5.66,MZ,1723494056
268,whangarei,-35.7317,174.3239,9.73,93,2,1.7,NZ,1723494056
269,minas de marcona,-15.2119,-75.1103,17.52,52,6,4.91,PE,1723493835
270,severo-yeniseyskiy,60.3725,93.0408,7.79,97,6,1.95,RU,1723494056
271,queenstown,-31.8976,26.8753,10.13,33,98,2.85,ZA,1723493458
272,natchitoches,31.7668,-93.1335,34.99,43,40,2.57,US,1723493770
273,puerto deseado,-47.7503,-65.8938,12.48,61,100,9.5,AR,1723494056
274,puerto quijarro,-17.7833,-57.7667,27.9,13,97,2.67,BO,1723494057
275,horta,38.5333,-28.6333,24.8,79,40,6.17,PT,1723494057
276,tindouf,27.6711,-8.1474,40.25,11,20,1.54,DZ,1723494057
277,santarem,-2.4431,-54.7083,22.07,100,75,1.54,BR,1723494057
278,acapulco de juarez,16.8634,-99.8901,30.9,70,100,2.57,MX,1723493882
279,yeniseysk,58.4497,92.1703,10.42,96,97,0.87,RU,1723494057
280,kayangel,8.0823,134.7173,28.52,70,82,0.57,PW,1723494057
281,serenje,-13.2325,30.2352,15.94,38,0,1.41,ZM,1723494057
282,tongouson,5.0214,120.1328,28.19,74,100,1.43,PH,1723494058
283,al majaridah,19.1236,41.9111,31.26,67,49,0.33,SA,1723494058
284,xinyuan,37.3,99.0,7.22,77,100,1.36,CN,1723494058
285,nar'yan-mar,67.6713,53.087,7.13,88,99,5.11,RU,1723494058
286,bumba,2.1833,22.4667,23.92,75,42,0.75,CD,1723494058
287,tura,25.5198,90.2201,24.0,98,100,2.19,IN,1723494058
288,lagoa,39.05,-27.9833,23.25,77,100,6.75,PT,1723494058
289,bonthe,7.5264,-12.505,25.21,87,100,4.29,SL,1723494058
290,segezha,63.7415,34.3222,14.49,93,99,3.31,RU,1723493796
291,st. john's,47.5649,-52.7093,25.15,69,75,7.72,CA,1723494034
292,nouadhibou,20.931,-17.0347,22.99,83,100,6.69,MR,1723494059
293,chiroqchi,39.0336,66.5722,27.43,25,0,2.15,UZ,1723494059
294,trinidad,-14.8333,-64.9,27.99,24,58,7.2,BO,1723494059
295,vila franca do campo,37.7167,-25.4333,22.53,67,35,2.19,PT,1723494059
296,tazovsky,67.4667,78.7,10.82,99,100,2.15,RU,1723494059
297,iringa,-7.7667,35.7,14.25,74,32,2.73,TZ,1723494013
298,sarina,-21.4333,149.2167,19.04,1,100,2.53,AU,1723494059
299,sao sebastiao,-23.76,-45.4097,14.83,62,15,4.25,BR,1723494059
300,san antonio oeste,-40.7319,-64.9477,19.1,25,99,9.64,AR,1723494059
301,mankera,31.3866,71.4407,35.77,47,25,2.25,PK,1723494060
302,carutapera,-1.195,-46.02,28.32,68,8,4.81,BR,1723494060
303,yuza,39.0,139.9167,25.75,93,58,2.44,JP,1723494060
304,colonia,50.9333,6.95,28.47,73,0,0.51,DE,1723494060
305,labrador city,52.9463,-66.9114,22.88,45,75,7.15,CA,1723494060
306,montes claros,-16.735,-43.8617,30.88,18,0,5.14,BR,1723494060
307,roxas,11.5853,122.7511,25.64,88,89,2.33,PH,1723494060
308,tchintabaraden,15.8969,5.7985,29.52,58,40,6.77,NE,1723494060
309,sitka,57.0531,-135.33,16.94,72,40,5.14,US,1723494060
310,baotou,40.6522,109.8222,19.7,61,10,2.17,CN,1723494061
311,vorkuta,67.5,64.0,10.68,75,100,4.59,RU,1723494061
312,flying fish cove,-10.4217,105.6791,24.82,78,100,5.14,CX,1723494061
313,kamikawa,43.84,142.7711,22.58,92,3,2.18,JP,1723494061
314,isangel,-19.55,169.2667,21.69,73,100,6.48,VU,1723494061
315,enewetak,11.3474,162.3373,28.48,77,100,7.15,MH,1723494061
316,kedrovyy,56.1667,91.8167,10.13,94,46,0.71,RU,1723494061
317,nadi,-17.8,177.4167,23.0,56,75,6.17,FJ,1723494061
318,chinchilla,-26.75,150.6333,15.57,96,100,2.24,AU,1723494061
319,rabigh,22.7986,39.0349,32.31,64,44,1.81,SA,1723494061
320,sinop,41.7711,34.8709,17.48,85,0,1.9,TR,1723494062
321,larkird,35.4894,66.6641,16.89,31,0,0.78,AF,1723494062
322,rongelap,11.1635,166.8941,28.36,76,100,3.9,MH,1723494062
323,haiku-pauwela,20.9219,-156.3051,28.47,58,40,8.23,US,1723494062
324,mansa,29.9833,75.3833,27.57,83,54,3.16,IN,1723494062
325,kisangani,0.5167,25.2,22.79,90,89,1.25,CD,1723494062
326,dudinka,69.4058,86.1778,9.63,76,75,2.35,RU,1723494062
327,hilo,19.7297,-155.09,24.49,99,100,3.09,US,1723494062
328,olovyannaya,50.95,115.5667,19.21,48,1,1.79,RU,1723494062
329,canton,23.1167,113.25,28.8,82,100,0.96,CN,1723494063
330,paphos,34.7667,32.4167,26.88,94,0,2.06,CY,1723494063
331,sandnessjoen,66.0217,12.6316,14.12,94,75,1.54,NO,1723494063
332,cottage grove,44.8277,-92.9438,27.92,41,0,3.09,US,1723494063
333,cockburn town,21.4612,-71.1419,28.66,83,3,8.08,TC,1723494063
334,bristol,41.8334,-71.1662,25.31,60,72,1.79,US,1723494063
335,baillif,16.0202,-61.7463,29.42,73,100,2.09,GP,1723494064
336,ouesso,1.6136,16.0517,24.55,72,48,1.16,CG,1723494064
337,kamaishi,39.2667,141.8833,24.23,98,84,3.24,JP,1723494064
338,hakui,36.8833,136.7833,24.44,95,39,1.6,JP,1723494064
339,ober-saulheim,49.8642,8.1411,26.46,69,0,1.23,DE,1723494064
340,kemijarvi,66.7131,27.4306,13.49,73,15,1.37,FI,1723494064
341,micheweni,-4.9667,39.8333,24.09,80,3,5.18,TZ,1723494064
342,at taj,24.2049,23.2857,34.43,40,13,1.64,LY,1723494064
343,san justo,-30.7891,-60.5919,17.21,24,0,0.89,AR,1723494065
344,tandil,-37.3217,-59.1332,11.01,50,3,2.67,AR,1723494065
345,midvagur,62.0511,-7.1939,12.46,87,100,10.8,FO,1723494065
346,castillos,-34.1667,-53.8333,8.49,60,6,4.87,UY,1723494065
347,soio,-6.1349,12.3689,22.07,86,75,2.65,AO,1723494065
348,jucas,-6.5253,-39.5275,34.8,22,2,2.24,BR,1723494065
349,petropavlovsk-kamchatsky,53.0452,158.6483,11.33,100,75,1.0,RU,1723494065
350,ji'an,27.1172,114.9793,26.0,90,100,0.23,CN,1723494065
351,talakan,50.3167,130.3667,15.82,99,66,1.39,RU,1723494065
352,medenine,33.355,10.5055,28.81,49,0,5.09,TN,1723494065
353,tofol,5.3248,163.0078,28.35,73,97,4.28,FM,1723494066
354,the bottom,17.6259,-63.2492,26.65,82,3,9.4,BQ,1723494066
355,kayyerkan,69.3786,87.7439,12.46,69,98,1.59,RU,1723494066
356,tukrah,32.5341,20.5791,27.83,70,0,3.23,LY,1723494066
357,banikoara,11.2985,2.4386,23.88,92,65,1.93,BJ,1723494066
358,kikwit,-5.041,18.8162,30.2,27,27,0.32,CD,1723494066
359,ust'-ilimsk,58.0006,102.6619,10.87,94,0,1.84,RU,1723494066
360,ta`u,-14.2336,-169.5144,25.63,76,97,10.06,AS,1723494066
361,taghazout,30.5426,-9.7112,26.28,59,20,2.56,MA,1723494067
362,sechura,-5.5569,-80.8222,23.71,58,42,6.79,PE,1723494067
363,helston,50.1032,-5.2705,15.11,94,20,2.06,GB,1723494067
364,maragogi,-9.0122,-35.2225,24.69,80,0,3.66,BR,1723494067
365,sakakah,29.9697,40.2064,32.67,20,0,3.85,SA,1723494067
366,vernon,50.2581,-119.2691,26.74,38,20,1.03,CA,1723494067
367,arkhangel'sk,64.5401,40.5433,15.06,72,20,3.0,RU,1723494067
368,fort-shevchenko,44.5086,50.263,27.02,70,17,5.16,KZ,1723494067
369,nola,40.922,14.5329,31.2,71,0,0.98,IT,1723494068
370,pathein,16.7833,94.7333,26.72,89,100,2.08,MM,1723494068
371,usakos,-22.0,15.6,19.87,20,0,0.47,NA,1723494004
372,shupiyan,33.7167,74.8333,18.31,84,54,1.17,IN,1723494068
373,las heras,-46.5419,-68.9359,13.68,56,94,12.86,AR,1723493778
374,maibong,25.3,93.1667,22.94,97,98,1.37,IN,1723494068
375,jayapura,-2.5333,140.7,21.44,94,67,2.05,ID,1723493469
376,cabedelo,-6.9811,-34.8339,25.23,81,3,3.99,BR,1723494068
377,kavieng,-2.5744,150.7967,27.42,82,97,7.76,PG,1723494069
378,sipovo,44.2814,17.0839,23.27,57,0,2.01,BA,1723494069
379,jefferson,38.1834,-85.65,28.21,44,75,2.06,US,1723494069
380,moyo,3.6609,31.7247,18.41,97,93,1.16,UG,1723494069
381,mlimba,-8.8,35.8167,22.76,54,0,1.25,TZ,1723494069
382,olavarria,-36.8927,-60.3225,11.54,50,0,3.4,AR,1723494069
383,puquio,-14.7,-74.1333,16.25,22,77,4.83,PE,1723494069
384,south hedland,-20.4089,118.5983,16.96,100,60,1.54,AU,1723494069
385,kidal,18.4411,1.4078,32.84,40,91,3.99,ML,1723494069
386,satsuma,30.8532,-88.0561,38.79,25,3,0.66,US,1723494070
387,tangalle,6.024,80.7911,25.37,91,100,3.42,LK,1723494070
388,nova gradiska,45.255,17.3831,27.19,38,0,2.0,HR,1723494070
389,karratha,-20.7377,116.8463,20.73,56,95,4.11,AU,1723494070
390,zouerate,22.7187,-12.4521,39.62,7,5,3.67,MR,1723494070
391,thunder bay,48.4001,-89.3168,26.95,50,40,4.12,CA,1723494028
392,lisala,2.15,21.5167,22.01,84,19,1.24,CD,1723494070
393,broome,42.2506,-75.833,20.92,61,100,6.17,US,1723494070
394,esikhaleni,-28.871,31.8996,18.86,72,100,1.7,ZA,1723494070
395,dogondoutchi,13.6393,4.0287,30.34,60,99,4.74,NE,1723494071
396,sumbe,-11.2061,13.8437,20.73,88,1,2.85,AO,1723494071
397,ulan bator,47.9077,106.8832,13.07,88,0,2.0,MN,1723494071
398,santa sylvina,-27.8326,-61.1375,19.41,19,0,2.91,AR,1723494071
399,langzhong,31.5504,105.9938,25.54,84,0,1.23,CN,1723494071
400,kermit,31.8576,-103.0927,36.91,23,20,2.57,US,1723494071
401,dazuocun,24.8862,118.9643,28.0,88,100,4.91,CN,1723494071
402,aripuana,-9.1667,-60.6333,36.21,19,100,1.61,BR,1723494071
403,boguchany,58.3814,97.4531,11.79,92,15,0.89,RU,1723494071
404,san andres,12.5847,-81.7006,30.01,74,20,4.63,CO,1723494072
405,kapa'a,22.0752,-159.319,27.83,74,20,6.69,US,1723494072
406,al kharj,24.155,47.3346,35.89,15,7,3.69,SA,1723494072
407,palmer,42.1584,-72.3287,25.29,57,75,3.09,US,1723494072
408,praia da vitoria,38.7333,-27.0667,26.14,65,20,3.75,PT,1723494072
409,tierp,60.3427,17.5181,17.14,62,94,2.46,SE,1723494072
410,havre,49.5833,0.3333,18.87,88,100,7.2,FR,1723494072
411,sawankhalok,17.316,99.8319,25.09,91,100,1.34,TH,1723494072
412,xiaoweizhai,26.1903,107.5125,20.4,91,22,1.46,CN,1723494072
413,coquimbo,-29.9533,-71.3436,12.85,100,100,3.09,CL,1723494072
414,mason,39.3601,-84.3099,28.73,46,0,2.57,US,1723493782
415,christchurch,-43.5333,172.6333,4.11,73,23,3.6,NZ,1723493954
416,akureyri,65.6835,-18.0878,9.96,81,100,3.6,IS,1723494073
417,cody,44.5263,-109.0565,30.11,24,20,6.69,US,1723494073
418,gurupi,-11.7292,-49.0686,37.06,12,0,2.97,BR,1723494073
419,bamboo flat,11.7,92.7167,27.05,89,40,1.03,IN,1723494073
420,guajara,-2.9667,-57.6667,36.06,32,67,1.75,BR,1723494073
421,san sebastian de la gomera,28.0916,-17.1133,24.2,78,0,1.54,ES,1723494073
422,plettenberg bay,-34.0527,23.3716,12.69,65,100,1.11,ZA,1723494074
423,isanlu-itedoijowa,8.2667,5.8333,22.74,94,100,2.18,NG,1723494074
424,al hada,21.3675,40.2869,24.94,49,22,0.53,SA,1723494074
425,pailon,-17.65,-62.75,26.5,14,74,4.82,BO,1723494074
426,lompoc,34.6391,-120.4579,20.85,63,20,3.6,US,1723493869
427,pudozh,61.8099,36.5345,14.07,93,100,1.61,RU,1723494074
428,marsh harbour,26.5412,-77.0636,29.47,70,3,4.73,BS,1723494074
429,amga,60.8953,131.9608,16.01,93,100,1.33,RU,1723494074
430,shingu,33.7333,135.9833,24.75,87,4,1.72,JP,1723494074
431,kill devil hills,36.0307,-75.676,23.32,90,100,3.6,US,1723494075
432,kapuskasing,49.4169,-82.4331,25.05,50,75,4.63,CA,1723494075
433,hassi messaoud,31.6804,6.0729,38.92,14,0,1.54,DZ,1723494075
434,wuhai,39.6647,106.8122,22.36,47,0,2.68,CN,1723494075
435,shalqar,47.8333,59.6,26.44,42,53,7.18,KZ,1723494075
436,strelka,58.0728,93.0344,10.85,95,99,0.85,RU,1723494075
437,laojunmiao,39.8333,97.7333,21.06,37,100,4.67,CN,1723494075
438,pushkar,26.5,74.55,25.46,91,100,4.48,IN,1723494075
439,san antonio,29.4241,-98.4936,37.75,44,40,5.14,US,1723494069
440,island harbour,50.724,-1.2758,18.89,83,5,2.24,GB,1723494076
441,nejo,9.5,35.5,15.13,97,100,0.93,ET,1723494076
442,blaj,46.1833,23.9167,22.71,47,59,0.84,RO,1723494076
443,alotau,-10.3069,150.4462,23.42,95,49,0.96,PG,1723494076
444,gebeit,21.0667,36.3167,33.73,26,11,1.47,SD,1723494076
445,sao benedito do rio preto,-3.3336,-43.5283,33.48,37,76,2.74,BR,1723494076
446,sumenep,-7.0167,113.8667,23.93,78,15,3.23,ID,1723493890
447,dalbandin,28.8947,64.4101,31.96,48,100,5.92,PK,1723494076
448,tadine,-21.55,167.8833,20.1,64,100,7.44,NC,1723494077
449,kingston,17.997,-76.7936,31.76,70,40,8.23,JM,1723493796
450,port lincoln,-34.7333,135.8667,16.13,59,100,6.25,AU,1723494077
451,parras de la fuente,25.4167,-102.1833,29.49,31,99,4.91,MX,1723494077
452,novyy urengoy,66.0833,76.6333,12.68,81,78,1.82,RU,1723494077
453,tongliao,43.6125,122.2653,19.44,93,64,3.26,CN,1723494077
454,nabire,-3.3667,135.4833,23.55,95,45,1.66,ID,1723494077
455,ribadesella,43.4614,-5.0596,20.87,86,39,1.28,ES,1723494077
456,nijar,36.9665,-2.206,25.8,74,0,3.09,ES,1723494077
457,el calafate,-50.3408,-72.2768,3.92,98,98,2.27,AR,1723494078
458,polyarnyy,69.1989,33.4478,15.63,73,99,2.64,RU,1723494078
459,luwuk,-0.9516,122.7875,21.83,90,100,2.4,ID,1723494078
460,faya-largeau,17.9257,19.1043,33.82,45,67,7.63,TD,1723494078
461,kharan,28.5833,65.4167,32.84,34,100,1.12,PK,1723494078
462,tocopilla,-22.092,-70.1979,17.73,70,70,1.4,CL,1723494078
463,umirim,-3.6772,-39.3503,27.71,57,26,5.68,BR,1723494079
464,guerrero negro,27.9769,-114.0611,28.8,50,0,5.49,MX,1723494079
465,dazhou,31.2159,107.5009,24.23,89,0,1.91,CN,1723494079
466,lindi,-10.0,39.7167,20.68,90,3,1.2,TZ,1723494079
467,raton,36.9034,-104.4391,28.34,34,0,0.0,US,1723494079
468,la paz,-16.5,-68.15,16.99,20,40,5.66,BO,1723494080
469,dem'yanovo,60.3511,47.0842,11.33,86,62,2.57,RU,1723494080
470,talaja,21.35,72.05,26.51,82,40,4.65,IN,1723494080
471,pindiga,9.9833,10.9333,22.43,93,100,2.12,NG,1723494080
472,okha,53.5739,142.9478,13.72,96,100,1.7,RU,1723494080
473,ain kercha,35.9247,6.6953,29.23,37,4,4.34,DZ,1723494080
474,susuman,62.7833,148.1667,10.41,83,91,2.04,RU,1723494080
475,pasinler,39.9803,41.6764,16.86,66,34,2.54,TR,1723494080
476,port-vila,-17.7338,168.3219,21.78,83,75,5.66,VU,1723494080
477,borzya,50.3833,116.5167,17.89,61,0,1.92,RU,1723494080
478,pago pago,-14.2781,-170.7025,26.55,74,75,6.69,AS,1723494081
479,lionel town,17.8101,-77.2406,31.37,64,31,6.49,JM,1723494081
480,barauna,-5.08,-37.6167,27.86,55,3,7.93,BR,1723494081
481,goz beida,13.95,20.55,25.19,79,72,3.73,TD,1723494081
482,ahwa,20.75,73.6833,23.19,95,100,1.61,IN,1723494081
483,rimus,16.8764,120.3966,26.26,83,98,2.1,PH,1723494081
484,sola,-13.8833,167.55,25.79,79,100,11.2,VU,1723494081
485,sovetskiy,61.3614,63.5842,11.64,89,98,1.68,RU,1723493953
486,hammerfest,70.6634,23.6821,17.25,72,100,1.03,NO,1723494081
487,tra mhor,52.1624,-7.1524,16.72,88,0,4.63,IE,1723494082
488,as sulayyil,20.4607,45.5779,35.51,15,14,2.71,SA,1723494082
489,namibe,-15.1961,12.1522,19.61,83,93,2.04,AO,1723494082
490,naze,28.3667,129.4833,26.13,83,5,1.78,JP,1723494082
491,roznava,48.6601,20.5376,21.15,61,50,2.53,SK,1723494082
492,kilindoni,-7.9139,39.6668,24.53,78,1,5.52,TZ,1723494082
493,olinda,-8.0089,-34.8553,26.85,69,0,3.09,BR,1723494082
494,belo sur tsiribihina,-19.7,44.55,21.14,68,0,2.87,MG,1723494082
495,yerofey pavlovich,53.9667,121.9667,15.54,79,5,0.59,RU,1723494082
496,tromso,69.6496,18.957,16.01,82,75,1.03,NO,1723494083
497,alibag,18.6411,72.8792,27.27,83,32,0.63,IN,1723494083
498,pokrov,55.92,39.1769,12.91,90,100,3.63,RU,1723494083
499,ocos,14.5094,-92.1933,28.97,74,79,2.66,GT,1723494083
500,port saint john's,-31.6229,29.5448,15.44,73,42,3.79,ZA,1723494083
501,awjilah,29.1081,21.2869,29.93,36,0,6.22,LY,1723494083
502,elassona,39.8947,22.1886,25.26,42,0,2.3,GR,1723494083
503,turpan,42.9333,89.1667,31.2,32,0,2.91,CN,1723494083
504,mili,6.0815,171.735,28.49,75,3,5.07,MH,1723494083
505,andrelandia,-21.7397,-44.3092,19.13,20,100,4.18,BR,1723494084
506,santa ana,33.7456,-117.8678,33.24,52,20,5.14,US,1723494084
507,northam,51.0333,-4.2167,15.9,87,14,3.27,GB,1723494084
508,vitoria da conquista,-14.8661,-40.8394,26.68,39,66,1.98,BR,1723494084
509,zapolyarnyy,69.4154,30.8136,12.35,83,0,1.43,RU,1723494074
510,baiti,13.745,-14.7482,27.6,75,32,4.65,SN,1723494084
511,chernyshevskiy,63.0128,112.4714,14.41,96,100,3.77,RU,1723494084
512,kerikeri,-35.2268,173.9474,11.06,93,63,0.89,NZ,1723494084
513,kyzyl-mazhalyk,51.1333,90.6,13.91,79,97,0.33,RU,1723494084
514,faranah,10.0404,-10.7434,22.64,95,95,1.66,GN,1723494085
515,yulinshi,38.2906,109.7494,21.08,60,0,2.51,CN,1723494085
516,yaiza,28.9633,-13.7631,22.87,73,20,7.72,ES,1723493847
517,urdinarrain,-32.6857,-58.8932,12.87,40,0,1.02,AR,1723494085
518,mont-dore,-22.2833,166.5833,22.22,99,100,4.53,NC,1723494085
519,homer,59.6425,-151.5483,12.94,71,100,3.09,US,1723494085
520,uttar char fasson,22.2332,90.7132,28.03,84,98,3.84,BD,1723494085
521,mbandaka,0.0487,18.2603,25.27,64,65,1.69,CD,1723494085
522,mahibadhoo,3.7833,72.9667,25.71,89,100,9.58,MV,1723494085
523,mohr,54.3528,9.7167,17.97,67,3,4.12,DE,1723494086
524,xilin hot,43.9667,116.0333,16.4,80,100,2.01,CN,1723494086
525,bentiu,9.2333,29.8333,22.79,92,99,0.76,SS,1723494086
526,almazan,41.4865,-2.5309,20.01,59,21,5.6,ES,1723494086
527,katsuren-haebaru,26.3369,127.8719,28.43,89,0,2.06,JP,1723494086
528,jaguaribe,-5.8906,-38.6219,35.48,20,3,3.72,BR,1723494086
529,korablino,53.9164,40.0133,14.87,71,97,6.44,RU,1723494086
530,ad dabbah,18.05,30.95,30.59,55,97,9.06,SD,1723494086
531,dabakala,8.3667,-4.4333,24.84,87,100,2.41,CI,1723494086
532,taro,-8.3862,115.28,17.79,100,63,0.35,ID,1723494087
533,peterhead,57.5058,-1.7981,13.89,98,100,2.84,GB,1723494087
534,novyy oskol,50.7631,37.8691,17.78,46,84,3.19,RU,1723494087
535,lerwick,60.1545,-1.1494,14.33,96,100,8.81,GB,1723494087
536,coruripe,-10.1256,-36.1756,24.49,83,0,4.74,BR,1723494087
537,phan rang-thap cham,11.5667,108.9833,25.09,88,56,1.64,VN,1723494087
538,nsanje,-16.92,35.262,23.21,52,0,1.05,MW,1723494087
539,vilyuysk,63.7553,121.6247,10.27,92,100,4.01,RU,1723494087
540,santa marta,11.2408,-74.199,32.72,68,20,3.09,CO,1723494087
541,chamical,-30.36,-66.314,20.27,14,0,7.95,AR,1723494088
542,cadale,2.7603,46.3222,25.11,85,25,9.58,SO,1723494088
543,whakatane,-37.9585,176.9854,6.4,87,0,1.34,NZ,1723494088
544,wladyslawowo,54.7909,18.4009,14.99,78,27,2.32,PL,1723494088
545,ostersund,63.1792,14.6357,12.25,89,0,6.17,SE,1723494088
546,luau,-10.7073,22.2247,21.31,17,0,1.44,AO,1723494088
547,ekenas,59.9736,23.4339,15.5,94,6,3.46,FI,1723494088
548,chenzhou,25.8,113.0333,24.73,94,100,0.72,CN,1723494088
549,gamba,-2.65,10.0,22.38,93,92,3.68,GA,1723494089
550,spring creek,40.7266,-115.5859,30.95,18,100,4.02,US,1723494089
551,greymouth,-42.4667,171.2,1.95,88,10,3.48,NZ,1723494089
552,kaltungo,9.8142,11.3089,22.8,93,100,1.58,NG,1723494089
553,grand-bassam,5.2118,-3.7388,24.21,92,55,4.1,CI,1723494089
554,rifle,39.5347,-107.7831,28.33,25,0,7.2,US,1723494089
555,mizdah,31.4451,12.9801,27.07,45,4,7.42,LY,1723494089
556,cenon,44.85,-0.5333,22.49,83,0,2.57,FR,1723494089
557,rancharia,-22.2292,-50.8931,19.83,30,100,4.0,BR,1723494089
558,vanimo,-2.6741,141.3028,24.92,91,40,2.54,PG,1723494090
559,ha dong,20.9725,105.7772,26.82,88,100,0.66,VN,1723494090
560,guia lopes da laguna,-21.4578,-56.1142,24.24,21,100,3.48,BR,1723494090
561,port augusta,-32.5,137.7667,10.9,64,0,2.0,AU,1723494090
562,pontianak,-0.0333,109.3333,26.99,100,100,2.06,ID,1723494090
563,leava,-14.3,-178.1667,25.79,76,100,11.61,WF,1723494090
564,male,4.1748,73.5089,28.97,79,75,9.26,MV,1723494090
565,sisimiut,66.9395,-53.6735,8.86,69,16,1.76,GL,1723494090
566,tamandare,-8.7597,-35.1047,25.21,76,0,3.51,BR,1723494090
567,voskresenskoye,56.8381,45.4317,11.54,94,99,3.85,RU,1723494091
568,dolores,-36.3132,-57.6792,10.9,56,6,1.92,AR,1723494091
