City_ID,City,Lat,Lng,Max Temp,Humidity,Cloudiness,Wind Speed,Country,Date
0,waitangi,-43.9535,-176.5597,7.12,94,60,0.89,NZ,1724263901
1,kununurra,-15.7667,128.7333,18.99,88,6,0.0,AU,1724263901
2,petropavlovsk-kamchatsky,53.0452,158.6483,8.33,76,0,1.0,RU,1724263901
3,kachug,53.9606,105.8817,12.27,78,2,1.13,RU,1724263901
4,kasongo-lunda,-6.4667,16.8167,28.09,19,42,1.31,CD,1724263901
5,albany,42.6001,-73.9662,20.81,57,26,2.24,US,1724263693
6,nar'yan-mar,67.6713,53.087,6.86,94,57,2.91,RU,1724263901
7,badger,64.8,-147.5333,8.93,83,100,3.09,US,1724263901
8,saipan,15.1355,145.701,28.39,83,20,3.6,MP,1724263775
9,edinburgh of the seven seas,-37.0676,-12.3116,11.2,74,35,15.14,SH,1724263901
10,broome,42.2506,-75.833,16.06,81,75,5.14,US,1724263902
11,grytviken,-54.2811,-36.5092,-5.57,69,26,11.22,GS,1724263902
12,port elizabeth,-33.918,25.5701,13.51,80,0,14.4,ZA,1724263902
13,margaret river,-33.95,115.0667,10.78,82,100,4.06,AU,1724263902
14,mata-utu,-13.2816,-176.1745,26.32,79,13,9.89,WF,1724263902
15,rakhiv,48.0526,24.2009,19.45,48,3,2.33,UA,1724263902
16,penzance,50.1186,-5.5371,16.38,80,61,9.38,GB,1724263902
17,benguela,-12.5763,13.4055,21.21,82,63,1.96,AO,1724263763
18,bethel,41.3712,-73.414,22.25,60,75,4.63,US,1724263902
19,wailua homesteads,22.0669,-159.378,26.44,82,40,7.2,US,1724263902
20,mahajanga,-15.7167,46.3167,25.01,47,20,4.63,MG,1724263903
21,al bawiti,28.3492,28.8659,34.88,21,0,5.73,EG,1724263903
22,ushuaia,-54.8,-68.3,5.12,75,17,1.19,AR,1724263903
23,thompson,55.7435,-97.8558,24.09,78,75,2.57,CA,1724263903
24,el calafate,-50.3408,-72.2768,3.26,67,36,1.0,AR,1724263903
25,hadibu,12.65,54.0333,25.97,78,70,8.51,YE,1724263903
26,galliano,29.4422,-90.2992,33.0,43,0,2.57,US,1724263903
27,mount isa,-20.7333,139.5,11.87,58,0,0.51,AU,1724263903
28,tarija,-21.5355,-64.7296,32.31,5,0,11.32,BO,1724263669
29,fort bragg,35.139,-79.006,26.49,48,0,2.57,US,1724263903
30,invercargill,-46.4,168.35,3.34,91,43,0.45,NZ,1724263903
31,la'ie,21.6477,-157.9253,28.98,77,25,2.68,US,1724263904
32,ribeira grande,38.5167,-28.7,27.22,65,20,2.24,PT,1724263904
33,hryhoriopol,47.1536,29.2964,27.77,22,100,1.04,MD,1724263904
34,west island,-12.1568,96.8225,26.99,83,20,4.12,CC,1724263904
35,butha-buthe,-28.8333,28.5,7.82,26,0,1.59,LS,1724263904
36,bilibino,68.0546,166.4372,5.49,96,100,1.54,RU,1724263904
37,gizo,-8.103,156.8419,27.16,80,100,4.23,SB,1724263904
38,namp'o,38.7375,125.4078,25.19,96,100,2.51,KP,1724263754
39,tete,-16.1564,33.5867,28.05,32,20,3.09,MZ,1724263904
40,taroudant,30.4703,-8.877,36.18,19,0,10.11,MA,1724263905
41,dudinka,69.4058,86.1778,13.64,62,92,2.39,RU,1724263905
42,gisenyi,-1.7028,29.2564,19.43,65,100,0.69,RW,1724263905
43,nur-sultan,51.1801,71.446,14.97,77,0,2.0,KZ,1724263905
44,arraial do cabo,-22.9661,-42.0278,24.92,73,0,5.14,BR,1724263765
45,yellowknife,62.456,-114.3525,11.34,86,99,8.49,CA,1724263875
46,iqaluit,63.7506,-68.5145,19.85,55,75,8.05,CA,1724263906
47,port lincoln,-34.7333,135.8667,11.58,89,37,4.01,AU,1724263906
48,college,64.8569,-147.8028,8.97,84,100,3.09,US,1724263906
49,vernon,50.2581,-119.2691,22.18,41,32,0.45,CA,1724263773
50,ginir,7.1333,40.7,12.5,83,65,4.63,ET,1724263906
51,fortuna,40.5982,-124.1573,22.18,70,40,5.14,US,1724263906
52,balykshi,47.0667,51.8667,24.0,69,0,4.0,KZ,1724263906
53,hasaki,35.7333,140.8333,25.59,87,100,4.23,JP,1724263906
54,gulu,2.7746,32.299,17.84,98,98,2.78,UG,1724263906
55,prince rupert,54.3161,-130.3201,13.83,94,75,3.6,CA,1724263906
56,trenggalek,-8.05,111.7167,21.02,97,88,0.73,ID,1724263907
57,adamstown,-25.066,-130.1015,16.86,55,98,8.16,PN,1724263907
58,faya-largeau,17.9257,19.1043,34.15,40,74,2.92,TD,1724263681
59,luanda,-8.8368,13.2343,20.64,93,67,4.86,AO,1724263907
60,vadso,70.0744,29.7487,18.09,63,75,6.17,NO,1724263907
61,al khums,32.6486,14.2619,27.0,71,50,5.06,LY,1724263907
62,qaqortoq,60.7167,-46.0333,5.83,77,12,3.18,GL,1724263907
63,kasungu,-13.0333,33.4833,18.83,33,11,2.54,MW,1724263907
64,forster,-32.1667,152.5167,12.43,97,100,2.75,AU,1724263907
65,st. john's,47.5649,-52.7093,24.04,89,100,0.89,CA,1724263666
66,kirakira,-10.4544,161.9205,26.34,87,60,7.63,SB,1724263792
67,cuatro cienegas de carranza,26.9833,-102.0833,34.87,25,33,4.34,MX,1724263908
68,orsova,44.7253,22.3961,24.8,45,60,2.51,RO,1724263908
69,tofol,5.3248,163.0078,28.54,70,78,2.97,FM,1724263908
70,tsiombe,-25.3,45.4833,19.37,61,0,3.27,MG,1724263908
71,port-aux-francais,-49.35,70.2167,2.92,92,91,14.14,TF,1724263908
72,noumea,-22.2763,166.4572,17.8,72,0,4.26,NC,1724263908
73,avarua,-21.2078,-159.775,23.03,83,75,8.23,CK,1724263908
74,isafjordur,66.0755,-23.124,7.02,81,75,9.26,IS,1724263735
75,bantogon,6.5333,124.0333,26.64,83,85,1.69,PH,1724263908
76,poronaysk,49.2167,143.1167,14.57,86,99,3.17,RU,1724263909
77,jamestown,42.097,-79.2353,17.79,59,75,5.14,US,1724263860
78,kirensk,57.7853,108.1119,13.94,87,88,0.57,RU,1724263909
79,constantia,44.1833,28.65,25.38,69,97,2.66,RO,1724263909
80,sitka,57.0531,-135.33,14.94,77,0,0.0,US,1724263638
81,keelung,25.1283,121.7419,30.05,88,18,0.5,TW,1724263909
82,tiksi,71.6872,128.8694,3.21,87,51,2.47,RU,1724263909
83,sao joao da barra,-21.6403,-41.0511,23.49,76,57,5.48,BR,1724263909
84,shingu,33.7333,135.9833,25.72,89,94,1.71,JP,1724263909
85,masina,-4.3836,15.3914,30.16,48,20,5.14,CD,1724263909
86,kibre mengist,5.8833,38.9833,13.39,96,100,0.45,ET,1724263910
87,acapulco de juarez,16.8634,-99.8901,30.9,66,40,5.14,MX,1724263744
88,sinabang,2.4803,96.3801,26.44,79,100,2.22,ID,1724263910
89,georgetown,5.4112,100.3354,26.96,83,20,0.0,MY,1724263910
90,kilindoni,-7.9139,39.6668,25.18,73,16,8.97,TZ,1724263910
91,buka,40.8108,69.1986,23.74,24,100,1.76,UZ,1724263910
92,harstad,68.799,16.5293,11.75,97,100,6.26,NO,1724263910
93,tura,25.5198,90.2201,24.23,98,100,2.59,IN,1724263910
94,tidjikja,18.5564,-11.4271,34.7,37,36,5.33,MR,1724263911
95,puerto baquerizo moreno,-0.9,-89.6,22.55,73,75,8.75,EC,1724263806
96,puerto ayora,-0.7393,-90.3518,19.19,98,89,3.13,EC,1724263911
97,flying fish cove,-10.4217,105.6791,24.82,88,100,5.66,CX,1724263911
98,hawaiian paradise park,19.5933,-154.9731,22.73,96,75,3.6,US,1724263911
99,magadan,59.5667,150.8,11.68,81,92,3.97,RU,1724263911
100,blackmans bay,-43.0167,147.3167,10.07,65,54,3.13,AU,1724263911
101,mossel bay,-34.1831,22.146,10.96,58,57,11.96,ZA,1724263911
102,klyuchi,52.2667,79.1667,19.07,56,88,2.41,RU,1724263912
103,ventanas,-1.45,-79.4667,30.76,52,86,1.74,EC,1724263797
104,codrington,-38.2667,141.9667,8.15,94,94,4.37,AU,1724263912
105,axim,4.8699,-2.2405,24.74,85,74,3.15,GH,1724263912
106,remire-montjoly,4.9167,-52.2667,32.02,70,75,5.14,GF,1724263912
107,bodo,67.28,14.405,12.02,87,100,6.17,NO,1724263817
108,bandarbeyla,9.4942,50.8122,25.12,79,53,12.98,SO,1724263912
109,la passe,45.5549,-0.8967,20.7,51,15,5.13,FR,1724263912
110,walvis bay,-22.9575,14.5053,15.53,63,4,8.22,NA,1724263912
111,longyearbyen,78.2186,15.6401,12.91,71,75,6.69,SJ,1724263912
112,zuni pueblo,35.0725,-108.8506,29.48,25,2,1.63,US,1724263913
113,nuuk,64.1835,-51.7216,6.34,75,75,5.66,GL,1724263913
114,olonkinbyen,70.9221,-8.7187,4.54,90,86,3.79,SJ,1724263913
115,yazman,29.1212,71.7446,35.76,41,64,3.5,PK,1724263913
116,lompoc,34.6391,-120.4579,26.99,56,0,5.66,US,1724263913
117,karungdong,5.8844,121.263,26.89,83,56,0.45,PH,1724263913
118,carnarvon,-24.8667,113.6333,19.61,73,2,5.77,AU,1724263913
119,sao geraldo do araguaia,-6.4006,-48.555,39.41,16,0,3.71,BR,1724263913
120,gopalpur,19.2667,84.9167,28.41,87,100,7.35,IN,1724263913
121,taltal,-25.4,-70.4833,15.0,67,1,2.66,CL,1724263913
122,holualoa,19.6228,-155.9522,23.82,98,75,4.12,US,1724263914
123,hermanus,-34.4187,19.2345,9.89,58,59,5.06,ZA,1724263914
124,cidreira,-30.1811,-50.2056,18.35,87,97,8.1,BR,1724263914
125,whitehorse,60.7161,-135.0538,10.61,71,20,3.09,CA,1724263914
126,bredasdorp,-34.5322,20.0403,8.27,58,19,4.4,ZA,1724263646
127,broken hill,-31.95,141.4333,12.43,56,100,2.77,AU,1724263914
128,puerto natales,-51.7236,-72.4875,4.25,75,0,1.03,CL,1724263914
129,lautoka,-17.6167,177.4667,22.92,73,20,2.57,FJ,1724263914
130,ilulissat,69.2167,-51.1,5.01,81,40,2.57,GL,1724263914
131,karratha,-20.7377,116.8463,19.95,79,16,2.8,AU,1724263915
132,tyazhinskiy,56.116,88.524,13.4,92,22,5.99,RU,1724263915
133,guerrero negro,27.9769,-114.0611,28.85,49,9,2.48,MX,1724263915
134,alofi,-19.0595,-169.9187,22.94,94,100,4.63,NU,1724263915
135,sanctuary point,-35.1114,150.629,14.38,66,100,4.4,AU,1724263915
136,port douglas,-16.4833,145.4667,21.63,76,80,4.79,AU,1724263915
137,felipe carrillo puerto,19.5833,-88.05,34.07,48,52,2.87,MX,1724263915
138,uturoa,-16.7333,-151.4333,25.67,59,36,10.62,PF,1724263916
139,ciudad lazaro cardenas,17.9583,-102.2,31.35,57,35,3.02,MX,1724263625
140,punta arenas,-53.15,-70.9167,7.06,70,20,7.2,CL,1724263916
141,stanley,54.868,-1.6985,16.27,79,40,6.69,GB,1724263916
142,abbeville,50.1,1.8333,18.05,66,99,3.68,FR,1724263916
143,hamilton,39.1834,-84.5333,24.38,45,40,2.24,US,1724263797
144,atafu village,-8.5421,-172.5159,27.95,77,98,9.47,TK,1724263916
145,cockburn town,21.4612,-71.1419,28.66,77,1,7.38,TC,1724263917
146,matthew town,20.95,-73.6667,31.14,65,29,7.07,BS,1724263917
147,kourou,5.1552,-52.6478,29.52,68,40,4.43,GF,1724263917
148,ziro,27.6333,93.8333,17.09,99,79,0.42,IN,1724263917
149,price,39.5994,-110.8107,26.59,38,0,4.25,US,1724263917
150,zeya,53.75,127.2667,14.65,70,100,1.14,RU,1724263917
151,idri,27.5,13.2667,39.67,10,0,3.64,LY,1724263917
152,tobelo,1.7284,128.0095,26.6,81,97,1.21,ID,1724263917
153,inhambane,-23.865,35.3833,20.18,75,0,3.77,MZ,1724263629
154,papatowai,-46.5619,169.4708,4.52,85,24,2.72,NZ,1724263917
155,port mathurin,-19.6833,63.4167,21.23,67,100,12.95,MU,1724263917
156,hithadhoo,-0.6,73.0833,28.55,75,100,4.16,MV,1724263918
157,new norfolk,-42.7826,147.0587,10.51,75,40,4.25,AU,1724263918
158,luderitz,-26.6481,15.1594,17.8,61,0,10.86,NA,1724263918
159,conduaga,8.862,117.4893,25.82,88,94,1.53,PH,1724263918
160,nabire,-3.3667,135.4833,23.85,94,97,1.75,ID,1724263918
161,sisimiut,66.9395,-53.6735,5.19,82,77,5.1,GL,1724263918
162,acarau,-2.8856,-40.12,29.18,62,1,9.13,BR,1724263918
163,veraval,20.9,70.3667,27.6,88,100,4.31,IN,1724263918
164,kalifornsky,60.4183,-151.29,9.17,100,100,2.57,US,1724263919
165,hede,33.7681,120.2517,21.98,92,100,2.99,CN,1724263919
166,rosario,-32.9468,-60.6393,12.75,71,99,8.05,AR,1724263661
167,kayangel,8.0823,134.7173,29.2,71,97,0.96,PW,1724263919
168,afaahiti,-17.75,-149.2833,23.17,66,75,12.38,PF,1724263919
169,tenosique,17.4833,-91.4333,31.51,64,13,3.64,MX,1724263919
170,utrik,11.2278,169.8474,27.99,73,89,4.17,MH,1724263919
171,valparaiso,-33.0393,-71.6273,13.89,66,75,8.23,CL,1724263865
172,moyamba,8.1667,-12.4333,23.35,97,100,1.61,SL,1724263919
173,inarajan village,13.2736,144.7484,27.54,94,100,3.15,GU,1724263919
174,palmer,42.1584,-72.3287,22.9,49,75,2.06,US,1724263920
175,lagoa formosa,-18.7786,-46.4075,31.12,14,0,4.9,BR,1724263743
176,santa rosa,14.3122,121.1114,28.99,95,100,0.93,PH,1724263691
177,darwin,-12.4611,130.8418,23.99,88,20,1.54,AU,1724263920
178,puerto quijarro,-17.7833,-57.7667,40.55,10,1,4.14,BO,1724263920
179,california city,35.1258,-117.9859,33.81,13,0,4.12,US,1724263762
180,sekong,-6.3996,106.0252,22.45,93,83,0.13,ID,1724263920
181,yantarnyy,54.8717,19.9381,18.71,81,96,11.59,RU,1724263920
182,nemuro,43.3236,145.575,16.74,90,82,5.47,JP,1724263920
183,plettenberg bay,-34.0527,23.3716,12.0,68,98,10.41,ZA,1724263921
184,solleftea,63.1667,17.2667,15.92,76,68,3.29,SE,1724263921
185,arauquita,7.0292,-71.4281,34.98,40,48,1.37,CO,1724263921
186,dame-marie,18.5667,-74.4167,30.21,71,10,3.12,HT,1724263921
187,soderhamn,61.3037,17.0592,16.19,85,88,3.18,SE,1724263921
188,trashi yangtse,27.6116,91.498,19.5,95,100,0.74,BT,1724263921
189,luwuk,-0.9516,122.7875,22.01,91,100,2.19,ID,1724263921
190,hassi messaoud,31.6804,6.0729,36.92,22,0,2.57,DZ,1724263922
191,mezhdurechensk,53.6942,88.0603,13.56,98,98,1.95,RU,1724263922
192,vilyuchinsk,52.9306,158.4028,9.15,72,91,4.1,RU,1724263757
193,nadi,-17.8,177.4167,23.0,73,20,2.57,FJ,1724263922
194,quellon,-43.1167,-73.6167,7.8,79,80,1.4,CL,1724263922
195,la mure,44.9026,5.7866,16.44,84,42,2.5,FR,1724263922
196,bay point,38.0291,-121.9616,27.12,48,0,6.17,US,1724263922
197,ugoofaaru,5.6667,73.0,27.83,78,98,6.95,MV,1724263922
198,lebu,-37.6167,-73.65,10.18,72,100,6.75,CL,1724263922
199,aksu,41.1231,80.2644,25.76,33,34,1.69,CN,1724263923
200,rabo de peixe,37.8,-25.5833,26.73,74,20,5.14,PT,1724263923
201,san patricio,28.017,-97.5169,37.97,33,12,1.99,US,1724263923
202,kamaishi,39.2667,141.8833,21.19,96,100,2.43,JP,1724263923
203,corcoran,36.098,-119.5604,29.08,20,0,3.02,US,1724263923
204,makurdi,7.7411,8.5121,24.52,93,56,1.41,NG,1724263923
205,djibo,14.1022,-1.6306,30.82,52,100,3.76,BF,1724263923
206,saucillo,28.0167,-105.2833,33.83,22,72,4.08,MX,1724263923
207,griffith,41.5284,-87.4237,22.75,45,0,2.57,US,1724263923
208,shenjiamen,29.9576,122.298,26.28,91,87,1.56,CN,1724263923
209,armacao de buzios,-22.7469,-41.8817,25.03,80,43,4.47,BR,1724263924
210,lihue,21.9789,-159.3672,26.77,77,40,7.2,US,1724263924
211,mwingi,-0.9344,38.0601,22.14,50,99,4.81,KE,1724263924
212,salahonda,2.1019,-78.7217,25.87,81,38,6.69,CO,1724263924
213,leava,-14.3,-178.1667,26.25,78,15,9.54,WF,1724263924
214,kodiak,57.79,-152.4072,13.73,82,100,0.0,US,1724263689
215,villa de san antonio,14.3167,-87.6167,30.63,51,53,2.41,HN,1724263924
216,ramshir,30.8946,49.4092,35.3,54,0,6.51,IR,1724263924
217,bijawar,24.6333,79.5,26.68,85,100,1.65,IN,1724263924
218,freetown,8.484,-13.2299,24.84,100,75,4.12,SL,1724263924
219,la sarre,48.8002,-79.1996,20.71,38,89,4.17,CA,1724263925
220,koulikoro,14.0,-7.75,27.4,72,50,2.99,ML,1724263925
221,nova sintra,14.8667,-24.7167,26.31,67,81,3.24,CV,1724263925
222,prineville,44.2999,-120.8345,21.39,42,0,2.06,US,1724263925
223,tokar,18.4254,37.729,36.46,38,12,10.65,SD,1724263925
224,bom jesus,-9.0744,-44.3586,37.91,16,2,2.87,BR,1724263926
225,tarakan,3.3,117.6333,26.47,81,67,1.85,ID,1724263926
226,santana,-0.0583,-51.1817,34.1,55,20,3.09,BR,1724263926
227,novofedorivka,46.1713,32.3178,25.45,57,69,1.8,UA,1724263926
228,urumqi,43.801,87.6005,23.53,47,100,2.0,CN,1724263926
229,geidam,12.897,11.9304,28.35,61,65,3.11,NG,1724263926
230,n'dalatando,-9.2978,14.9116,24.68,47,25,3.05,AO,1724263926
231,pacific grove,36.6177,-121.9166,18.93,89,0,3.6,US,1724263926
232,haiku-pauwela,20.9219,-156.3051,26.81,72,20,7.72,US,1724263927
233,labrador city,52.9463,-66.9114,14.95,63,75,3.6,CA,1724263927
234,beloyarskiy,63.7119,66.6722,11.69,86,29,2.22,RU,1724263927
235,isangel,-19.55,169.2667,21.47,85,53,4.37,VU,1724263927
236,farah,32.5,62.5,26.66,13,0,2.28,AF,1724263927
237,sydney,-33.8679,151.2073,16.51,65,100,2.57,AU,1724263833
238,portland,45.5234,-122.6762,21.95,69,75,2.57,US,1724263927
239,iquique,-20.2208,-70.1431,16.81,80,19,6.08,CL,1724263647
240,richards bay,-28.783,32.0377,24.87,30,0,3.38,ZA,1724263927
241,rio grande,-32.035,-52.0986,17.39,90,100,4.9,BR,1724263829
242,santyoku,37.4406,129.1708,26.79,84,97,2.08,KR,1724263928
243,belle fourche,44.6714,-103.8522,25.73,28,13,7.25,US,1724263928
244,springbok,-29.6643,17.8865,8.34,78,24,3.48,ZA,1724263928
245,mont-laurier,46.5501,-75.4993,20.89,33,98,4.82,CA,1724263861
246,oum hadjer,13.2954,19.6966,27.52,70,84,2.79,TD,1724263928
247,mena,51.5217,32.2157,26.0,20,24,3.38,UA,1724263928
248,anadyr,64.75,177.4833,6.28,100,40,4.0,RU,1724263928
249,ketchikan,55.3422,-131.6461,14.87,74,18,2.85,US,1724263928
250,mizque,-17.941,-65.3402,28.02,26,8,4.73,BO,1724263929
251,dryden,49.7833,-92.7503,25.16,47,0,4.63,CA,1724263929
252,enewetak,11.3474,162.3373,28.61,77,100,5.18,MH,1724263929
253,angaur state,6.906,134.13,29.45,69,76,2.07,PW,1724263929
254,kapuskasing,49.4169,-82.4331,22.55,33,15,0.88,CA,1724263802
255,nagqu,31.5,92.0,3.58,86,6,1.85,CN,1724263929
256,bagula,23.3167,88.65,27.71,88,95,3.67,IN,1724263929
257,cabedelo,-6.9811,-34.8339,29.37,76,16,7.14,BR,1724263929
258,sugito,36.0333,139.7333,29.41,88,100,2.64,JP,1724263930
259,novi knezevac,46.05,20.1,27.55,37,67,7.09,RS,1724263930
260,saint-philippe,-21.3585,55.7679,20.05,76,55,7.09,RE,1724263930
261,banamba,13.55,-7.45,26.89,76,58,2.83,ML,1724263930
262,polyarnyy,69.1989,33.4478,15.96,61,98,5.38,RU,1724263930
263,fisterra,42.9049,-9.2629,19.89,79,0,11.24,ES,1724263930
264,waingapu,-9.6567,120.2641,23.5,87,31,3.03,ID,1724263930
265,vila nova de foz coa,41.0637,-7.2039,33.07,30,32,3.72,PT,1724263930
266,qingdao,36.0986,120.3719,25.91,86,100,2.02,CN,1724263817
267,sabang,5.8933,95.3214,29.17,73,100,5.33,ID,1724263931
268,kone,-21.0595,164.8658,15.69,92,0,2.21,NC,1724263931
269,ellsworth,44.5434,-68.4195,21.05,77,0,4.12,US,1724263864
270,panaba,21.2833,-88.2667,34.42,43,90,3.08,MX,1724263931
271,kupang,-10.1667,123.5833,22.89,86,69,1.52,ID,1724263931
272,puerto lleras,3.0223,-73.4044,34.9,39,8,0.59,CO,1724263931
273,simanggang,1.2472,111.4528,22.7,100,100,0.37,MY,1724263931
274,sibirskiy,53.5777,83.7577,15.44,85,70,2.21,RU,1724263931
275,vorgashor,67.5833,63.95,7.95,88,98,3.45,RU,1724263931
276,kingston,17.997,-76.7936,33.98,66,29,1.09,JM,1724263931
277,lazaro cardenas,17.9583,-102.2,31.35,57,35,3.02,MX,1724263932
278,khandyga,62.6667,135.6,10.43,82,87,0.81,RU,1724263932
279,vorkuta,67.5,64.0,8.33,88,98,3.19,RU,1724263932
280,saacow,1.6279,42.4407,26.27,61,68,9.36,SO,1724263932
281,praia da vitoria,38.7333,-27.0667,27.64,69,20,3.23,PT,1724263932
282,tehri,30.3833,78.4833,22.86,95,81,0.69,IN,1724263932
283,edd,13.9297,41.6925,32.8,53,100,2.82,ER,1724263932
284,peniche,39.3558,-9.3811,22.34,81,2,6.51,PT,1724263932
285,touros,-5.1989,-35.4608,27.69,66,3,8.26,BR,1724263932
286,siguiri,11.6667,-9.5,24.76,93,74,2.48,GN,1724263932
287,awjilah,29.1081,21.2869,37.33,16,0,3.37,LY,1724263933
288,jutai,-5.1833,-68.9,35.39,35,38,1.58,BR,1724263933
289,alotau,-10.3069,150.4462,24.13,94,100,1.53,PG,1724263773
290,kerema,-7.9631,145.7785,25.4,91,95,1.87,PG,1724263933
291,basirpur,30.5832,73.829,30.86,61,19,1.51,PK,1724263933
292,madanapalle,13.55,78.5,22.89,75,87,5.9,IN,1724263933
293,belmonte,-15.8631,-38.8828,26.19,64,43,2.76,BR,1724263933
294,ust-nera,64.5667,143.2,7.1,70,20,2.42,RU,1724263934
295,aras-asan,8.8908,126.3033,26.32,85,99,2.19,PH,1724263934
296,muscat,23.6139,58.5922,29.6,75,0,1.6,OM,1724263934
297,greymouth,-42.4667,171.2,3.55,94,98,2.98,NZ,1724263746
298,olinda,-8.0089,-34.8553,27.85,69,40,7.72,BR,1724263813
299,kerikeri,-35.2268,173.9474,7.17,92,16,1.51,NZ,1724263934
300,makubetsu,45.3714,141.8211,19.67,93,100,8.03,JP,1724263934
301,toliara,-23.35,43.6667,21.77,61,0,3.47,MG,1724263934
302,yangambi,0.8102,24.4336,21.36,85,100,0.36,CD,1724263934
303,puerto leguizamo,-0.1934,-74.7819,35.74,37,22,0.51,CO,1724263934
304,port alfred,-33.5906,26.891,14.54,68,28,6.26,ZA,1724263935
305,tazovsky,67.4667,78.7,10.0,80,24,0.94,RU,1724263935
306,corner brook,48.9667,-57.9484,14.12,98,100,2.28,CA,1724263935
307,bardai,11.65,7.2333,23.19,86,83,3.34,NG,1724263935
308,mantua,45.1667,10.7833,30.19,69,55,0.45,IT,1724263793
309,chonchi,-42.6128,-73.8092,10.07,76,57,0.99,CL,1724263935
310,masterton,-40.9597,175.6575,4.53,97,12,1.68,NZ,1724263935
311,ondjiva,-17.0667,15.7333,21.48,10,1,2.98,AO,1724263936
312,namibe,-15.1961,12.1522,17.76,89,34,2.03,AO,1724263936
313,hirara,24.8,125.2833,29.05,83,13,6.4,JP,1724263936
314,port saint john's,-31.6229,29.5448,17.98,73,54,11.5,ZA,1724263936
315,barcelos,41.5388,-8.6151,25.0,53,51,3.09,PT,1724263650
316,beas de segura,38.2524,-2.8888,29.79,43,42,2.86,ES,1724263936
317,brookings,44.3114,-96.7984,22.32,78,100,10.8,US,1724263934
318,besisahar,28.2313,84.3761,21.02,87,85,2.52,NP,1724263936
319,spring creek,40.7266,-115.5859,25.45,15,0,2.24,US,1724263936
320,chul'man,56.8479,124.9104,10.26,94,82,1.32,RU,1724263936
321,el hadjira,32.6134,5.5126,36.93,19,1,4.83,DZ,1724263937
322,geraldton,-28.7667,114.6,15.23,82,75,5.14,AU,1724263937
323,moundou,8.5667,16.0833,23.25,93,81,1.79,TD,1724263937
324,kurmuk,10.55,34.2833,20.81,97,99,1.35,SD,1724263937
325,bodaybo,57.8506,114.1933,12.3,90,47,0.12,RU,1724263937
326,bhamo,24.2667,97.2333,24.0,99,98,0.61,MM,1724263937
327,sengkang,-4.1279,120.0297,22.51,91,94,1.26,ID,1724263938
328,lake albert,-35.1667,147.3833,8.81,95,93,0.81,AU,1724263938
329,sovetskaya gavan',48.9723,140.2878,17.55,69,100,0.96,RU,1724263934
330,alta,69.9689,23.2717,18.59,65,0,3.09,NO,1724263938
331,talnakh,69.4865,88.3972,14.12,68,67,2.58,RU,1724263938
332,tolanaro,-25.0319,46.9987,22.04,64,20,8.23,MG,1724263938
333,turpan,42.9333,89.1667,30.44,36,52,3.88,CN,1724263938
334,bandar lampung,-5.4254,105.258,22.51,95,56,0.91,ID,1724263800
335,kenora,49.8167,-94.4337,23.54,56,75,6.71,CA,1724263939
336,lethem,3.3803,-59.7968,34.06,47,31,0.83,GY,1724263939
337,weno,7.4515,151.8468,26.97,83,100,3.09,FM,1724263939
338,fauske,67.2588,15.3918,11.08,98,100,2.18,NO,1724263939
339,chilliwack,49.1747,-121.9443,19.19,79,100,1.54,CA,1724263939
340,pathein,16.7833,94.7333,24.25,95,100,1.67,MM,1724263939
341,berezovyy,51.6667,135.7,17.59,66,100,1.27,RU,1724263939
342,miri,4.4148,114.0089,24.79,93,99,2.07,MY,1724263939
343,abu dhabi,24.4667,54.3667,34.97,68,0,4.12,AE,1724263935
344,byford,-32.2167,116.0,14.28,90,100,2.06,AU,1724263939
345,kuanda,56.3161,116.0806,13.5,80,82,1.51,RU,1724263940
346,ingeniero jacobacci,-41.3427,-69.5448,5.39,46,10,3.94,AR,1724263940
347,severnoye,56.3491,78.3619,11.92,93,76,2.02,RU,1724263940
348,taytay,14.5678,121.1394,28.96,87,75,0.51,PH,1724263940
349,pampa del indio,-26.0647,-59.919,24.9,63,99,4.22,AR,1724263940
350,tot'ma,59.9747,42.7642,14.82,74,39,1.58,RU,1724263940
351,rio hato,8.3833,-80.1667,30.82,70,100,4.12,PA,1724263940
352,alice,27.7523,-98.0697,38.09,37,0,4.12,US,1724263940
353,dubbo,-32.25,148.6167,9.07,100,100,0.0,AU,1724263940
354,lorengau,-2.0226,147.2712,27.02,83,27,5.15,PG,1724263940
355,chunskiy,56.0815,99.6342,14.04,90,29,1.66,RU,1724263941
356,yuzhno-kurilsk,44.0306,145.8556,16.54,92,73,4.85,RU,1724263941
357,cannonvale,-20.2833,148.7,19.66,78,92,3.49,AU,1724263941
358,longboat key,27.4125,-82.659,32.22,78,20,4.12,US,1724263941
359,keflavik,64.0049,-22.5624,9.24,81,0,10.29,IS,1724263941
360,reserva,-24.6503,-50.8506,29.0,25,0,3.34,BR,1724263941
361,tangalle,6.024,80.7911,23.36,93,100,3.63,LK,1724263941
362,kailua-kona,19.6406,-155.9956,25.89,98,75,4.12,US,1724263942
363,alice springs,-23.7,133.8833,14.75,47,1,0.0,AU,1724263942
364,zhigalovo,54.8097,105.1578,12.55,80,9,1.0,RU,1724263942
365,comodoro rivadavia,-45.8667,-67.5,6.63,72,100,4.28,AR,1724263942
366,qarauyl,48.9451,79.255,16.36,61,35,2.66,KZ,1724263942
367,medenine,33.355,10.5055,29.03,42,2,4.38,TN,1724263942
368,soio,-6.1349,12.3689,22.63,82,95,2.29,AO,1724263942
369,puerto santa,-8.9906,-78.6456,19.15,75,70,6.21,PE,1724263942
370,coyhaique,-45.5752,-72.0662,4.18,98,100,1.2,CL,1724263942
371,mejit,10.2753,170.8646,27.84,75,83,4.05,MH,1724263943
372,millersville,39.9979,-76.3541,22.95,54,75,4.12,US,1724263943
373,maloye ganyushkino,46.6,49.2667,25.4,50,0,3.4,KZ,1724263943
374,colonia,50.9333,6.95,19.97,54,100,2.52,DE,1724263943
375,kruisfontein,-34.0033,24.7314,12.06,58,72,12.17,ZA,1724263943
376,zhaobaoshan,29.9695,121.6875,26.63,87,86,0.88,CN,1724263943
377,vilyuysk,63.7553,121.6247,13.55,95,100,2.27,RU,1724263943
378,port blair,11.6667,92.75,28.09,73,100,0.57,IN,1724263943
379,aasiaat,68.7098,-52.8699,1.93,86,94,4.11,GL,1724263943
380,margate,51.3813,1.3862,18.82,64,98,0.45,GB,1724263840
381,le port,-20.9373,55.2919,20.98,89,35,2.75,RE,1724263944
382,hilo,19.7297,-155.09,22.85,81,75,3.6,US,1724263944
383,ta`u,-14.2336,-169.5144,25.89,81,85,9.8,AS,1724263944
384,meadow lakes,61.6247,-149.6011,10.93,91,100,0.0,US,1724263944
385,tanjungbalai,2.9667,99.8,23.92,97,87,1.54,ID,1724263944
386,ryotsu-minato,38.0833,138.4333,24.1,81,100,0.57,JP,1724263944
387,kabansk,52.0486,106.6528,12.93,81,0,1.42,RU,1724263944
388,pisco,-13.7,-76.2167,20.03,68,5,9.26,PE,1724263772
389,kavaratti,10.5669,72.642,26.14,87,100,13.77,IN,1724263944
390,bonthe,7.5264,-12.505,24.96,89,100,4.93,SL,1724263944
391,island harbour,50.724,-1.2758,18.32,74,100,2.68,GB,1724263945
392,viqueque,-8.8673,126.3658,21.63,97,94,1.06,TL,1724263945
393,ola,59.5833,151.2833,11.36,80,90,3.78,RU,1724263945
394,kragero,58.8693,9.4149,17.4,62,1,6.93,NO,1724263945
395,hell-ville,-13.4,48.2667,25.53,64,3,1.53,MG,1724263945
396,coquimbo,-29.9533,-71.3436,14.85,54,0,4.63,CL,1724263790
397,mokhsogollokh,61.4681,128.9203,11.6,97,68,1.88,RU,1724263933
398,nguigmi,14.2495,13.1092,32.45,46,25,0.73,NE,1724263945
399,bei'an,46.4398,126.2373,21.92,98,61,4.97,CN,1724263945
400,malyye derbety,47.9547,44.6808,29.16,22,1,2.77,RU,1724263946
401,ayr,55.4627,-4.6339,14.99,88,75,10.8,GB,1724263867
402,coronel oviedo,-25.4167,-56.45,38.92,11,3,5.55,PY,1724263946
403,buala,-8.145,159.5921,26.23,85,100,5.0,SB,1724263946
404,basco,20.4487,121.9702,29.09,76,30,1.5,PH,1724263946
405,mahina,-17.5065,-149.489,25.87,57,20,2.06,PF,1724263946
406,casas grandes,30.3667,-107.95,32.24,24,46,3.44,MX,1724263947
407,yemel'yanovo,56.1681,92.6767,14.45,100,98,0.0,RU,1724263947
408,riberalta,-10.9833,-66.1,40.2,19,17,1.72,BO,1724263947
409,labytnangi,66.6572,66.4183,10.86,79,73,3.14,RU,1724263947
410,acajutla,13.5928,-89.8275,30.05,64,6,2.95,SV,1724263947
411,manokwari,-0.8667,134.0833,25.1,82,94,2.19,ID,1724263947
412,lichtenburg,-26.152,26.1597,14.19,17,0,2.42,ZA,1724263947
413,phan thiet,10.9333,108.1,25.89,89,85,1.19,VN,1724263947
414,inirida,3.8653,-67.9239,36.64,37,13,0.34,CO,1724263947
415,ha'il,27.5219,41.6907,37.01,13,0,2.06,SA,1724263948
416,san antonio de pale,-1.4014,5.6325,23.36,80,37,3.23,GQ,1724263948
417,sassandra,4.95,-6.0833,24.69,85,64,3.39,CI,1724263948
418,katsuura,35.1333,140.3,26.11,87,100,3.87,JP,1724263948
419,yanykurgan,43.915,67.2481,23.97,31,0,3.84,KZ,1724263948
420,atar,20.5169,-13.0499,40.27,22,21,3.91,MR,1724263948
421,mount sterling,38.0565,-83.9433,22.21,39,0,4.12,US,1724263948
422,timimoun,29.2639,0.231,44.21,9,0,3.09,DZ,1724263948
423,mosjoen,65.836,13.1908,12.29,94,75,1.54,NO,1724263948
424,chibougamau,49.9168,-74.3659,20.79,40,20,5.14,CA,1724263948
425,tarawa,1.419,172.984,27.05,78,40,3.6,KI,1724263949
426,middlebury (village),44.0153,-73.1673,17.43,76,40,0.0,US,1724263949
427,daru,-9.0763,143.2092,24.46,86,100,8.83,PG,1724263949
428,kapa'a,22.0752,-159.319,27.18,79,40,7.2,US,1724263949
429,port moresby,-9.4431,147.1797,24.68,88,20,3.6,PG,1724263949
430,aver-o-mar,41.4078,-8.7812,22.31,68,0,2.06,PT,1724263949
431,santiago de cao,-7.9589,-79.2392,18.07,82,100,4.63,PE,1724263949
432,malanje,-9.5402,16.341,25.3,13,27,1.62,AO,1724263949
433,yinchuan,38.4681,106.2731,25.61,36,72,1.07,CN,1724263949
434,udachny,66.4167,112.4,12.84,86,88,1.54,RU,1724263949
435,ebaye,8.7748,167.7392,27.01,83,40,1.54,MH,1724263950
436,kangding,30.0513,101.9603,13.41,86,67,2.37,CN,1724263950
437,altai,46.3722,96.2583,13.92,66,100,3.52,MN,1724263950
438,pestovo,58.5938,35.8024,13.91,65,99,2.51,RU,1724263950
439,burdur,37.7203,30.2908,28.39,42,40,3.6,TR,1724263950
440,srivardhan,18.0333,73.0167,27.51,84,100,1.03,IN,1724263950
441,lindisfarne,-42.8333,147.35,10.88,65,35,5.66,AU,1724263950
442,mount gambier,-37.8333,140.7667,7.01,97,100,2.19,AU,1724263950
443,usogorsk,63.4106,48.6872,14.21,74,100,2.39,RU,1724263950
444,minas de marcona,-15.2119,-75.1103,13.78,74,93,9.07,PE,1724263950
445,ishinomaki,38.4167,141.3,23.65,92,100,3.64,JP,1724263951
446,tananger,58.9333,5.6,15.71,81,75,3.09,NO,1724263951
447,rossleben,51.3,11.4333,16.53,60,94,3.44,DE,1724263951
448,tralee,52.2704,-9.7026,18.14,68,75,9.77,IE,1724263951
449,manggar,-2.8833,108.2667,25.62,87,100,2.75,ID,1724263951
450,porto novo,6.4965,2.6036,25.9,81,35,3.4,BJ,1724263951
451,nadym,65.5333,72.5167,12.36,70,3,3.23,RU,1724263951
452,hasilpur,29.7122,72.5553,33.81,48,39,2.55,PK,1724263951
453,tual,-5.6667,132.75,25.72,86,72,8.14,ID,1724263951
454,letterkenny,54.95,-7.7333,13.92,94,100,5.88,IE,1724263951
455,kurtamysh,54.9103,64.4319,13.69,97,100,2.46,RU,1724263952
456,seririt,-8.1928,114.9388,23.07,84,32,2.25,ID,1724263952
457,nuku'alofa,-21.1333,-175.2,22.51,72,55,7.3,TO,1724263952
458,murray,40.6669,-111.888,33.62,17,0,7.72,US,1724263952
459,novogrudok,53.6,25.8333,21.83,77,100,1.49,BY,1724263952
460,callao,-12.0667,-77.15,19.84,77,100,2.06,PE,1724263781
461,smithers,54.7804,-127.1743,12.18,76,100,3.09,CA,1724263952
462,bernalillo,35.05,-106.6673,34.66,24,6,0.89,US,1724263952
463,zhanga buqtyrma,49.6295,83.5248,13.16,92,50,0.83,KZ,1724263953
464,nieuw amsterdam,5.8833,-55.0833,34.01,55,40,3.09,SR,1724263953
465,charters towers,-20.1,146.2667,14.67,92,0,2.93,AU,1724263953
466,impfondo,1.6381,18.0667,24.25,79,99,0.82,CG,1724263953
467,sechura,-5.5569,-80.8222,24.52,54,38,6.57,PE,1724263953
468,torquay,50.4638,-3.5143,17.08,77,71,2.24,GB,1724263953
469,tianchang,37.9981,114.0156,21.88,82,0,2.54,CN,1724263953
470,susuman,62.7833,148.1667,3.64,90,20,1.55,RU,1724263954
471,jinghong,21.991,100.7341,22.27,100,100,0.59,CN,1724263954
472,gummi,12.1436,5.1081,25.61,84,72,2.85,NG,1724263954
473,ust-tsilma,65.441,52.1498,10.07,86,5,1.13,RU,1724263954
474,funafuti,-8.5243,179.1942,27.86,77,26,10.91,TV,1724263954
475,las higueras,-33.0923,-64.289,7.45,82,100,7.48,AR,1724263954
476,gadzhiyevo,69.2551,33.3362,16.22,61,99,5.15,RU,1724263955
477,leo,11.1,-2.1,26.03,80,66,2.48,BF,1724263955
478,cabo san lucas,22.8909,-109.9124,32.64,54,20,4.12,MX,1724263955
479,cadale,2.7603,46.3222,25.01,82,100,9.02,SO,1724263955
480,urengoy,65.9667,78.3667,14.04,66,100,2.1,RU,1724263955
481,mili,6.0815,171.735,28.18,70,91,1.18,MH,1724263955
482,ingeniero guillermo n. juarez,-23.9,-61.85,33.18,29,54,4.7,AR,1724263955
483,poplar bluff,36.757,-90.3929,25.5,47,0,3.13,US,1724263955
484,nema,57.5067,50.5011,13.74,82,30,4.21,RU,1724263955
485,deqen,29.9618,90.7188,10.14,74,36,1.15,CN,1724263956
486,nova vicosa,-17.8919,-39.3719,26.49,60,1,4.11,BR,1724263713
487,ust'-ordynskiy,52.805,104.7508,13.04,85,8,1.14,RU,1724263956
488,inari,68.906,27.0288,16.09,57,100,5.58,FI,1724263956
489,klaksvik,62.2266,-6.589,11.3,99,100,10.34,FO,1724263956
490,lagoa,39.05,-27.9833,23.5,69,69,3.67,PT,1724263956
491,naze,28.3667,129.4833,26.69,87,50,2.79,JP,1724263956
492,al bardiyah,31.7561,25.0865,27.35,71,0,2.96,LY,1724263956
493,sandnessjoen,66.0217,12.6316,11.06,93,75,1.54,NO,1724263956
494,santa cruz,-17.8,-63.1667,35.7,38,40,12.35,BO,1724263957
495,morehead city,34.7229,-76.726,27.02,55,0,4.12,US,1724263913
496,niles,42.0189,-87.8028,24.12,55,75,4.12,US,1724263722
497,ati,13.2154,18.3353,28.45,65,84,2.22,TD,1724263957
498,gulariya,28.2333,81.3333,25.34,86,33,0.86,NP,1724263957
499,thinadhoo,0.5333,72.9333,28.24,75,100,3.04,MV,1724263957
500,sorong,-0.8833,131.25,24.53,93,100,1.97,ID,1724263957
501,corn island,12.1694,-83.0418,28.58,79,24,8.1,NI,1724263957
502,matadi,-5.8167,13.45,25.33,66,87,3.02,CD,1724263958
503,antofagasta,-23.65,-70.4,14.6,78,42,6.66,CL,1724263842
504,xinyuan,37.3,99.0,8.15,72,49,0.82,CN,1724263958
505,motygino,58.1831,94.7592,14.34,95,97,1.25,RU,1724263958
506,fort mcmurray,56.7268,-111.381,18.73,77,75,2.57,CA,1724263958
507,pierre,44.3683,-100.351,24.51,73,75,9.77,US,1724263958
508,sogndal,61.2283,7.1003,16.21,67,75,1.54,NO,1724263958
509,kulpahar,25.3167,79.65,28.43,83,100,1.02,IN,1724263958
510,chegdomyn,51.1167,133.0167,15.54,65,100,0.81,RU,1724263958
511,cloverdale,38.8055,-123.0172,28.62,40,0,1.11,US,1724263959
512,pahlgam,34.0333,75.3333,10.57,80,5,2.12,IN,1724263959
513,kondrovo,54.8064,35.9278,19.19,73,30,3.1,RU,1724263959
514,praya,14.9215,-23.5087,28.3,61,75,3.09,CV,1724263959
515,tynda,55.1667,124.7167,14.33,90,99,1.76,RU,1724263959
516,sarmiento,-45.5882,-69.07,5.27,81,100,1.18,AR,1724263959
517,al kharijah,25.4514,30.5464,35.48,18,0,4.39,EG,1724263959
518,kristiansund,63.1115,7.732,16.18,77,20,3.6,NO,1724263959
519,altay,47.8667,88.1167,16.92,44,69,3.56,CN,1724263959
520,puerto rico,-26.796,-55.024,35.73,19,55,3.86,AR,1724263874
521,tongliao,43.6125,122.2653,16.56,94,28,2.57,CN,1724263960
522,papao,-17.75,-149.55,25.82,64,44,12.67,PF,1724263960
523,sao miguel do araguaia,-13.275,-50.1628,37.49,14,7,3.38,BR,1724263960
524,kondopoga,62.2057,34.2614,14.15,81,98,2.01,RU,1724263960
525,buinsk,54.95,48.2833,15.8,69,7,3.04,RU,1724263960
526,tabou,4.423,-7.3528,24.96,86,89,4.68,CI,1724263936
527,tefe,-3.3542,-64.7114,40.4,18,6,1.75,BR,1724263960
528,ghat,24.9647,10.1728,41.0,9,26,3.37,LY,1724263960
529,boonville,38.9736,-92.7432,25.35,60,40,3.09,US,1724263960
530,ambovombe,-25.1667,46.0833,19.05,58,0,3.42,MG,1724263961
531,shakiso,5.75,38.9167,13.4,96,100,0.4,ET,1724263961
532,banda aceh,5.5577,95.3222,26.34,82,100,2.92,ID,1724263961
533,villa de cos,23.2833,-102.35,25.94,32,92,5.51,MX,1724263961
534,oranjemund,-28.55,16.4333,13.51,78,7,11.62,NA,1724263691
535,antsiranana,-12.2787,49.2917,22.26,76,20,9.64,MG,1724263961
536,saint-pierre,-21.3393,55.4781,20.82,68,20,11.83,RE,1724263961
537,tukrah,32.5341,20.5791,27.71,69,0,4.35,LY,1724263961
538,zaozersk,69.4005,32.4476,15.91,61,82,4.52,RU,1724263961
539,chernyshevskiy,63.0128,112.4714,13.61,78,99,1.53,RU,1724263961
540,kuta,-8.7233,115.1723,24.97,94,20,2.57,ID,1724263962
541,puerto san jose,13.9256,-90.8244,34.03,52,40,4.12,GT,1724263962
542,devils lake,48.1128,-98.8651,21.99,78,75,7.2,US,1724263962
543,howard springs,-12.497,131.047,23.95,81,6,0.97,AU,1724263962
544,laascaanood,8.4774,47.3597,25.39,51,83,10.31,SO,1724263962
545,ancud,-41.8697,-73.8203,6.12,87,47,3.22,CL,1724263962
546,saint-joseph,-21.3667,55.6167,20.21,73,30,7.34,RE,1724263962
547,ouadda,8.0777,22.4007,19.8,99,100,2.9,CF,1724263962
548,murashi,59.3999,48.9615,12.04,89,18,3.0,RU,1724263962
549,floro,61.5996,5.0328,14.98,72,75,10.8,NO,1724263963
550,melekeok village,7.4957,134.6367,25.31,94,75,1.54,PW,1724263963
551,vapnyarka,48.5348,28.7436,24.38,54,93,4.53,UA,1724263963
552,lawas,13.764,121.0566,26.53,87,100,1.47,PH,1724263963
553,east london,-33.0153,27.9116,14.52,67,20,12.35,ZA,1724263963
554,tromso,69.6496,18.957,16.01,77,100,0.51,NO,1724263963
555,qarazhal,48.0078,70.7903,18.54,49,12,3.64,KZ,1724263963
556,general acha,-37.377,-64.6043,5.09,85,100,6.41,AR,1724263934
557,amahai,-3.3333,128.9167,24.58,87,80,1.15,ID,1724263963
558,fale old settlement,-9.3852,-171.2468,27.65,77,97,8.88,TK,1724263964
559,junin,-34.5838,-60.9433,7.72,94,100,5.25,AR,1724263781
560,celestun,20.8667,-90.4,30.52,60,10,3.72,MX,1724263964
